[
    {
        "Name": "Cafe La Boheme",
        "Address": "61-1 Yamashitacho Naka-ku Yokohama Kanagawa",
        "Url": "http://tabelog.com/en/kanagawa/A1401/A140105/14010439/",
        "Dishes": 3.06,
        "Service": 3.06,
        "Atmosphere": 3.09,
        "Cost": 3.06,
        "Drinks": 3,
        "Latitude": 35.4438856,
        "Longitude": 139.6488554
    },
    {
        "Name": "YOKOHAMA ASIAN DINING \u0026 BAR",
        "Address": "3-43-4 Wakabacho Naka-ku Yokohama Kanagawa",
        "Url": "http://tabelog.com/en/kanagawa/A1401/A140102/14052259/",
        "Dishes": 3.17,
        "Service": 3.23,
        "Atmosphere": 3.22,
        "Cost": 3.22,
        "Drinks": 3.06,
        "Latitude": 35.4412748,
        "Longitude": 139.6275875
    },
    {
        "Name": "Onikunokuni",
        "Address": "Takashima Nishi-ku Yokohama Kanagawa",
        "Url": "http://tabelog.com/en/kanagawa/A1401/A140101/14058676/",
        "Dishes": 3.18,
        "Service": 3,
        "Atmosphere": 3.12,
        "Cost": 3.18,
        "Drinks": 3.18,
        "Latitude": 35.4622889,
        "Longitude": 139.6222899
    },
    {
        "Name": "Saizeriya",
        "Address": "1-1-3 Sagamihara Chuo-ku Sagamihara Kanagawa",
        "Url": "http://tabelog.com/en/kanagawa/A1407/A140701/14039132/",
        "Dishes": 3.02,
        "Service": 3.01,
        "Atmosphere": 3.01,
        "Cost": 3.05,
        "Drinks": 3.01,
        "Latitude": 35.5811327,
        "Longitude": 139.3709098
    },
    {
        "Name": "Kabune",
        "Address": "16-1 Totsukacho Totsuka-ku Yokohama Kanagawa",
        "Url": "http://tabelog.com/en/kanagawa/A1401/A140305/14035503/",
        "Dishes": 3.02,
        "Service": 3,
        "Atmosphere": 3.08,
        "Cost": 3.02,
        "Drinks": 3,
        "Latitude": 35.4015872,
        "Longitude": 139.5332269
    },
    {
        "Name": "Uotami",
        "Address": "4-14-25 Chuorinkan Yamato Kanagawa",
        "Url": "http://tabelog.com/en/kanagawa/A1407/A140702/14013159/",
        "Dishes": 3,
        "Service": 3,
        "Atmosphere": 3,
        "Cost": 3,
        "Drinks": 3,
        "Latitude": 35.5080078,
        "Longitude": 139.4455886
    },
    {
        "Name": "Sazanka",
        "Address": "2-14-1 Minamisaiwai Nishi-ku Yokohama Kanagawa",
        "Url": "http://tabelog.com/en/kanagawa/A1401/A140101/14049884/",
        "Dishes": 3,
        "Service": 3,
        "Atmosphere": 3,
        "Cost": 3,
        "Drinks": 3,
        "Latitude": 35.4640304,
        "Longitude": 139.6177293
    },
    {
        "Name": "Sammaruku",
        "Address": "1-6-1 Kamiookanishi Konan-ku Yokohama Kanagawa",
        "Url": "http://tabelog.com/en/kanagawa/A1401/A140307/14041549/",
        "Dishes": 3,
        "Service": 3.01,
        "Atmosphere": 3,
        "Cost": 2.99,
        "Drinks": 3,
        "Latitude": 35.4072739,
        "Longitude": 139.5961112
    },
    {
        "Name": "Fukumanen",
        "Address": "200 Yamashitacho Naka-ku Yokohama Kanagawa",
        "Url": "http://tabelog.com/en/kanagawa/A1401/A140105/14000504/",
        "Dishes": 3.43,
        "Service": 3.07,
        "Atmosphere": 3.15,
        "Cost": 3.33,
        "Drinks": 3.11,
        "Latitude": 35.4431273,
        "Longitude": 139.6434308
    },
    {
        "Name": "Watami",
        "Address": "4-2-1 Kamikodanaka Nakahara-ku Kawasaki Kanagawa",
        "Url": "http://tabelog.com/en/kanagawa/A1405/A140504/14013248/",
        "Dishes": 3,
        "Service": 3,
        "Atmosphere": 3,
        "Cost": 3.01,
        "Drinks": 3.01,
        "Latitude": 35.5813758,
        "Longitude": 139.6409824
    }
]