[
    {
        "Name": "Cafe La Boheme",
        "Address": "61-1 Yamashitacho Naka-ku Yokohama Kanagawa",
        "Url": "http://tabelog.com/en/kanagawa/A1401/A140105/14010439/",
        "Dishes": 3.06,
        "Service": 3.06,
        "Atmosphere": 3.09,
        "Cost": 3.06,
        "Drinks": 3,
        "Latitude": 35.4438856,
        "Longitude": 139.6488554
    },
    {
        "Name": "Watami",
        "Address": "4-2-1 Kamikodanaka Nakahara-ku Kawasaki Kanagawa",
        "Url": "http://tabelog.com/en/kanagawa/A1405/A140504/14013248/",
        "Dishes": 3,
        "Service": 3,
        "Atmosphere": 3,
        "Cost": 3.01,
        "Drinks": 3.01,
        "Latitude": 35.5813758,
        "Longitude": 139.6409824
    },
    {
        "Name": "Fukumanen",
        "Address": "200 Yamashitacho Naka-ku Yokohama Kanagawa",
        "Url": "http://tabelog.com/en/kanagawa/A1401/A140105/14000504/",
        "Dishes": 3.43,
        "Service": 3.07,
        "Atmosphere": 3.15,
        "Cost": 3.33,
        "Drinks": 3.11,
        "Latitude": 35.4431273,
        "Longitude": 139.6434308
    },
    {
        "Name": "YOKOHAMA ASIAN DINING \u0026 BAR",
        "Address": "3-43-4 Wakabacho Naka-ku Yokohama Kanagawa",
        "Url": "http://tabelog.com/en/kanagawa/A1401/A140102/14052259/",
        "Dishes": 3.17,
        "Service": 3.23,
        "Atmosphere": 3.22,
        "Cost": 3.22,
        "Drinks": 3.06,
        "Latitude": 35.4412748,
        "Longitude": 139.6275875
    },
    {
        "Name": "Onikunokuni",
        "Address": "Takashima Nishi-ku Yokohama Kanagawa",
        "Url": "http://tabelog.com/en/kanagawa/A1401/A140101/14058676/",
        "Dishes": 3.18,
        "Service": 3,
        "Atmosphere": 3.12,
        "Cost": 3.18,
        "Drinks": 3.18,
        "Latitude": 35.4622889,
        "Longitude": 139.6222899
    },
    {
        "Name": "Uotami",
        "Address": "4-14-25 Chuorinkan Yamato Kanagawa",
        "Url": "http://tabelog.com/en/kanagawa/A1407/A140702/14013159/",
        "Dishes": 3,
        "Service": 3,
        "Atmosphere": 3,
        "Cost": 3,
        "Drinks": 3,
        "Latitude": 35.5080078,
        "Longitude": 139.4455886
    },
    {
        "Name": "Sazanka",
        "Address": "2-14-1 Minamisaiwai Nishi-ku Yokohama Kanagawa",
        "Url": "http://tabelog.com/en/kanagawa/A1401/A140101/14049884/",
        "Dishes": 3,
        "Service": 3,
        "Atmosphere": 3,
        "Cost": 3,
        "Drinks": 3,
        "Latitude": 35.4640304,
        "Longitude": 139.6177293
    },
    {
        "Name": "Sammaruku",
        "Address": "1-6-1 Kamiookanishi Konan-ku Yokohama Kanagawa",
        "Url": "http://tabelog.com/en/kanagawa/A1401/A140307/14041549/",
        "Dishes": 3,
        "Service": 3.01,
        "Atmosphere": 3,
        "Cost": 2.99,
        "Drinks": 3,
        "Latitude": 35.4072739,
        "Longitude": 139.5961112
    },
    {
        "Name": "Kabune",
        "Address": "16-1 Totsukacho Totsuka-ku Yokohama Kanagawa",
        "Url": "http://tabelog.com/en/kanagawa/A1401/A140305/14035503/",
        "Dishes": 3.02,
        "Service": 3,
        "Atmosphere": 3.08,
        "Cost": 3.02,
        "Drinks": 3,
        "Latitude": 35.4015872,
        "Longitude": 139.5332269
    },
    {
        "Name": "Saizeriya",
        "Address": "1-1-3 Sagamihara Chuo-ku Sagamihara Kanagawa",
        "Url": "http://tabelog.com/en/kanagawa/A1407/A140701/14039132/",
        "Dishes": 3.02,
        "Service": 3.01,
        "Atmosphere": 3.01,
        "Cost": 3.05,
        "Drinks": 3.01,
        "Latitude": 35.5811327,
        "Longitude": 139.3709098
    },
    {
        "Name": "Issa",
        "Address": "2-1-2 Minamifujisawa Fujisawa Kanagawa",
        "Url": "http://tabelog.com/en/kanagawa/A1404/A140404/14007677/",
        "Dishes": 3,
        "Service": 3.02,
        "Atmosphere": 3.04,
        "Cost": 3,
        "Drinks": 3,
        "Latitude": 35.3384815,
        "Longitude": 139.4888944
    },
    {
        "Name": "Arijou",
        "Address": "1-11 Nisshincho Kawasaki-ku Kawasaki Kanagawa",
        "Url": "http://tabelog.com/en/kanagawa/A1405/A140501/14042485/",
        "Dishes": 3.02,
        "Service": 3.06,
        "Atmosphere": 3.01,
        "Cost": 3.22,
        "Drinks": 3,
        "Latitude": 35.5294171,
        "Longitude": 139.6967267
    },
    {
        "Name": "Fikodhindhia",
        "Address": "1-24-16 Asahicho Atsugi Kanagawa",
        "Url": "http://tabelog.com/en/kanagawa/A1408/A140802/14032008/",
        "Dishes": 3.59,
        "Service": 3.54,
        "Atmosphere": 3.56,
        "Cost": 3.54,
        "Drinks": 3.51,
        "Latitude": 35.4379825,
        "Longitude": 139.3641915
    },
    {
        "Name": "Yamauchinoujou",
        "Address": "2-15-4 Utsukushigaoka Aoba-ku Yokohama Kanagawa",
        "Url": "http://tabelog.com/en/kanagawa/A1401/A140201/14046138/",
        "Dishes": 3,
        "Service": 3,
        "Atmosphere": 3,
        "Cost": 3,
        "Drinks": 3,
        "Latitude": 35.5793486,
        "Longitude": 139.5584772
    },
    {
        "Name": "Furesshunesubaga",
        "Address": "2-5-25 Fujigaoka Aoba-ku Yokohama Kanagawa",
        "Url": "http://tabelog.com/en/kanagawa/A1401/A140202/14032179/",
        "Dishes": 3.02,
        "Service": 3.01,
        "Atmosphere": 3.02,
        "Cost": 3.01,
        "Drinks": 3.02,
        "Latitude": 35.5438919,
        "Longitude": 139.5273135
    },
    {
        "Name": "Erisu",
        "Address": "146 Yamashitacho Naka-ku Yokohama Kanagawa",
        "Url": "http://tabelog.com/en/kanagawa/A1401/A140105/14040559/",
        "Dishes": 3.02,
        "Service": 3.03,
        "Atmosphere": 3,
        "Cost": 3.14,
        "Drinks": 3,
        "Latitude": 35.4429218,
        "Longitude": 139.6453862
    },
    {
        "Name": "Primodine",
        "Address": "555 Fujisawa Fujisawa Kanagawa",
        "Url": "http://tabelog.com/en/kanagawa/A1404/A140404/14008675/",
        "Dishes": 3.02,
        "Service": 3,
        "Atmosphere": 3,
        "Cost": 3.03,
        "Drinks": 2.99,
        "Latitude": 35.3399174,
        "Longitude": 139.4869807
    },
    {
        "Name": "Fukueimon",
        "Address": "1 Nisshincho Kawasaki-ku Kawasaki Kanagawa",
        "Url": "http://tabelog.com/en/kanagawa/A1405/A140501/14008534/",
        "Dishes": 3.29,
        "Service": 3.09,
        "Atmosphere": 3.04,
        "Cost": 3.39,
        "Drinks": 3.11,
        "Latitude": 35.5287061,
        "Longitude": 139.6954574
    },
    {
        "Name": "Arijou",
        "Address": "1-25-1 Nakagawachuo Tsuzuki-ku Yokohama Kanagawa",
        "Url": "http://tabelog.com/en/kanagawa/A1401/A140203/14051192/",
        "Dishes": 3.05,
        "Service": 3.04,
        "Atmosphere": 3.08,
        "Cost": 3.11,
        "Drinks": 3,
        "Latitude": 35.5516442,
        "Longitude": 139.579457
    },
    {
        "Name": "Akamomohanten",
        "Address": "2-9 Higashidacho Kawasaki-ku Kawasaki Kanagawa",
        "Url": "http://tabelog.com/en/kanagawa/A1405/A140501/14005044/",
        "Dishes": 3.2,
        "Service": 3,
        "Atmosphere": 2.99,
        "Cost": 3.06,
        "Drinks": 3,
        "Latitude": 35.5279506,
        "Longitude": 139.7018374
    },
    {
        "Name": "Yakinikukingu",
        "Address": "5-29-25 Hino Konan-ku Yokohama Kanagawa",
        "Url": "http://tabelog.com/en/kanagawa/A1401/A140307/14040124/",
        "Dishes": 3.02,
        "Service": 3.07,
        "Atmosphere": 3.07,
        "Cost": 3.06,
        "Drinks": 3.06,
        "Latitude": 35.3926334,
        "Longitude": 139.5831369
    },
    {
        "Name": "Hakonehairandohoterurafore",
        "Address": "神奈川県足柄下郡箱根町仙石原品の木940",
        "Url": "http://tabelog.com/en/kanagawa/A1410/A141001/14004807/",
        "Dishes": 3.55,
        "Service": 3.55,
        "Atmosphere": 3.54,
        "Cost": 3.35,
        "Drinks": 3.43,
        "Latitude": 35.26654449999999,
        "Longitude": 139.015841
    },
    {
        "Name": "Hamazushi",
        "Address": "4-31-7 Kizuki Nakahara-ku Kawasaki Kanagawa",
        "Url": "http://tabelog.com/en/kanagawa/A1405/A140504/14050310/",
        "Dishes": 3.02,
        "Service": 3,
        "Atmosphere": 3,
        "Cost": 3.02,
        "Drinks": 3,
        "Latitude": 35.5592325,
        "Longitude": 139.6520937
    },
    {
        "Name": "TIME",
        "Address": "2-79 Nogecho Naka-ku Yokohama Kanagawa",
        "Url": "http://tabelog.com/en/kanagawa/A1401/A140102/14035701/",
        "Dishes": 3.19,
        "Service": 3.12,
        "Atmosphere": 3.18,
        "Cost": 3.24,
        "Drinks": 3.04,
        "Latitude": 35.4473018,
        "Longitude": 139.6293399
    },
    {
        "Name": "Kototoi",
        "Address": "2-17-1 Minamisaiwai Nishi-ku Yokohama Kanagawa",
        "Url": "http://tabelog.com/en/kanagawa/A1401/A140102/14049241/",
        "Dishes": 3,
        "Service": 3,
        "Atmosphere": 3,
        "Cost": 3,
        "Drinks": 3,
        "Latitude": 35.4640692,
        "Longitude": 139.6166267
    },
    {
        "Name": "Kinryuuhanten",
        "Address": "187-8 Yamashitacho Naka-ku Yokohama Kanagawa",
        "Url": "http://tabelog.com/en/kanagawa/A1401/A140105/14010464/",
        "Dishes": 3.06,
        "Service": 2.99,
        "Atmosphere": 3.01,
        "Cost": 3.12,
        "Drinks": 3,
        "Latitude": 35.4427635,
        "Longitude": 139.64765
    },
    {
        "Name": "Sushizammai",
        "Address": "165-4 Yamashitacho Naka-ku Yokohama Kanagawa",
        "Url": "http://tabelog.com/en/kanagawa/A1401/A140105/14039548/",
        "Dishes": 3.07,
        "Service": 3,
        "Atmosphere": 3,
        "Cost": 3,
        "Drinks": 3,
        "Latitude": 35.4436911,
        "Longitude": 139.6470778
    },
    {
        "Name": "Biosuteriabishibashi",
        "Address": "3丁目51-8 Miyamotocho Minami-ku Yokohama Kanagawa",
        "Url": "http://tabelog.com/en/kanagawa/A1401/A140306/14011292/",
        "Dishes": 3.36,
        "Service": 3.15,
        "Atmosphere": 3.13,
        "Cost": 3.18,
        "Drinks": 3.27,
        "Latitude": 35.4300373,
        "Longitude": 139.6095506
    },
    {
        "Name": "Pittsuriabaruketta",
        "Address": "1-13-17 Miyagawacho Naka-ku Yokohama Kanagawa",
        "Url": "http://tabelog.com/en/kanagawa/A1401/A140102/14053135/",
        "Dishes": 3.53,
        "Service": 3.56,
        "Atmosphere": 3.53,
        "Cost": 3.53,
        "Drinks": 3.52,
        "Latitude": 35.4463686,
        "Longitude": 139.6294372
    },
    {
        "Name": "Royal Parasol",
        "Address": "4233-2 Akiya Yokosuka Kanagawa",
        "Url": "http://tabelog.com/en/kanagawa/A1406/A140601/14030478/",
        "Dishes": 3.25,
        "Service": 3.18,
        "Atmosphere": 3.21,
        "Cost": 3.2,
        "Drinks": 3.05,
        "Latitude": 35.2452134,
        "Longitude": 139.5946093
    },
    {
        "Name": "Kyoutokimurayahonten",
        "Address": "1-3-7 Isago Kawasaki-ku Kawasaki Kanagawa",
        "Url": "http://tabelog.com/en/kanagawa/A1405/A140501/14044726/",
        "Dishes": 3.01,
        "Service": 3,
        "Atmosphere": 3,
        "Cost": 3,
        "Drinks": 3,
        "Latitude": 35.5320001,
        "Longitude": 139.7005735
    },
    {
        "Name": "Kimura",
        "Address": "1-6-21 Enoshima Fujisawa Kanagawa",
        "Url": "http://tabelog.com/en/kanagawa/A1404/A140403/14000192/",
        "Dishes": 3.38,
        "Service": 3.11,
        "Atmosphere": 3.12,
        "Cost": 3.14,
        "Drinks": 3,
        "Latitude": 35.3001708,
        "Longitude": 139.4820311
    },
    {
        "Name": "Igaiga",
        "Address": "1-4-7 Nakagawachuo Tsuzuki-ku Yokohama Kanagawa",
        "Url": "http://tabelog.com/en/kanagawa/A1401/A140203/14032830/",
        "Dishes": 3.03,
        "Service": 3,
        "Atmosphere": 3,
        "Cost": 3.04,
        "Drinks": 2.99,
        "Latitude": 35.5525996,
        "Longitude": 139.5761212
    },
    {
        "Name": "Hiratsukaizawa",
        "Address": "15-4 Beniyacho Hiratsuka Kanagawa",
        "Url": "http://tabelog.com/en/kanagawa/A1404/A140407/14035245/",
        "Dishes": 3.08,
        "Service": 3.01,
        "Atmosphere": 3,
        "Cost": 3,
        "Drinks": 3,
        "Latitude": 35.3282167,
        "Longitude": 139.3466796
    },
    {
        "Name": "Hamachou",
        "Address": "4-49-14 Kamariyahigashi Kanazawa-ku Yokohama Kanagawa",
        "Url": "http://tabelog.com/en/kanagawa/A1401/A140310/14000942/",
        "Dishes": 3.09,
        "Service": 3.03,
        "Atmosphere": 3.04,
        "Cost": 3,
        "Drinks": 3.03,
        "Latitude": 35.3461484,
        "Longitude": 139.6097151
    },
    {
        "Name": "Kanazawamaimonsushi",
        "Address": "2-19-3 Utsukushigaoka Aoba-ku Yokohama Kanagawa",
        "Url": "http://tabelog.com/en/kanagawa/A1401/A140201/14001109/",
        "Dishes": 3.55,
        "Service": 3.32,
        "Atmosphere": 3.51,
        "Cost": 3.05,
        "Drinks": 2.99,
        "Latitude": 35.5810289,
        "Longitude": 139.5587965
    },
    {
        "Name": "Ryuukohanten",
        "Address": "216-5 Yamashitacho Naka-ku Yokohama Kanagawa",
        "Url": "http://tabelog.com/en/kanagawa/A1401/A140105/14007443/",
        "Dishes": 3,
        "Service": 3,
        "Atmosphere": 3,
        "Cost": 3.02,
        "Drinks": 3,
        "Latitude": 35.4425246,
        "Longitude": 139.6438364
    },
    {
        "Name": "Ajinomingei",
        "Address": "6-5-2 Suge Tama-ku Kawasaki Kanagawa",
        "Url": "http://tabelog.com/en/kanagawa/A1405/A140506/14029126/",
        "Dishes": 3.06,
        "Service": 3.06,
        "Atmosphere": 3.05,
        "Cost": 3.03,
        "Drinks": 3.02,
        "Latitude": 35.6382498,
        "Longitude": 139.5239323
    },
    {
        "Name": "bisutororyuban",
        "Address": "1-10 Kinkocho Kanagawa-ku Yokohama Kanagawa",
        "Url": "http://tabelog.com/en/kanagawa/A1401/A140101/14012831/",
        "Dishes": 3.22,
        "Service": 3.12,
        "Atmosphere": 3.51,
        "Cost": 3.47,
        "Drinks": 3.26,
        "Latitude": 35.4665051,
        "Longitude": 139.6266506
    },
    {
        "Name": "The fish and oysters",
        "Address": "2-5-10 Takashima Nishi-ku Yokohama Kanagawa",
        "Url": "http://tabelog.com/en/kanagawa/A1401/A140102/14058004/",
        "Dishes": 3.05,
        "Service": 3.05,
        "Atmosphere": 3.05,
        "Cost": 3.05,
        "Drinks": 3.05,
        "Latitude": 35.46177790000001,
        "Longitude": 139.6226816
    },
    {
        "Name": "Kuraxtsu",
        "Address": "5-62 Sumiyoshicho Naka-ku Yokohama Kanagawa",
        "Url": "http://tabelog.com/en/kanagawa/A1401/A140104/14038081/",
        "Dishes": 3.05,
        "Service": 3.12,
        "Atmosphere": 3.13,
        "Cost": 3.14,
        "Drinks": 3.09,
        "Latitude": 35.4479129,
        "Longitude": 139.6352839
    },
    {
        "Name": "Sushidaininguwatokousaitamahachi",
        "Address": "599 Kamonomiya Odawara Kanagawa",
        "Url": "http://tabelog.com/en/kanagawa/A1409/A140901/14008044/",
        "Dishes": 3.02,
        "Service": 3.02,
        "Atmosphere": 3.02,
        "Cost": 3.02,
        "Drinks": 3.02,
        "Latitude": 35.2812984,
        "Longitude": 139.1775054
    },
    {
        "Name": "Doragombaru",
        "Address": "3-2-27 Hamatake Chigasaki Kanagawa",
        "Url": "http://tabelog.com/en/kanagawa/A1404/A140404/14049280/",
        "Dishes": 3.25,
        "Service": 3.25,
        "Atmosphere": 3.21,
        "Cost": 3.22,
        "Drinks": 3.21,
        "Latitude": 35.3358971,
        "Longitude": 139.4430256
    },
    {
        "Name": "Nadaihakonesoba",
        "Address": "8-19 Ekimae Honcho Kawasaki-ku Kawasaki Kanagawa",
        "Url": "http://tabelog.com/en/kanagawa/A1405/A140501/14021600/",
        "Dishes": 3.02,
        "Service": 2.99,
        "Atmosphere": 3,
        "Cost": 3.08,
        "Drinks": 3,
        "Latitude": 35.5314724,
        "Longitude": 139.7003541
    },
    {
        "Name": "Wataminchi",
        "Address": "2-2-5 Shonandai Fujisawa Kanagawa",
        "Url": "http://tabelog.com/en/kanagawa/A1404/A140405/14014505/",
        "Dishes": 3.01,
        "Service": 3,
        "Atmosphere": 3.01,
        "Cost": 3.01,
        "Drinks": 3,
        "Latitude": 35.3966181,
        "Longitude": 139.465957
    },
    {
        "Name": "Tsunashimahorumon",
        "Address": "2-13-9 Tsunashimanishi Kohoku-ku Yokohama Kanagawa",
        "Url": "http://tabelog.com/en/kanagawa/A1401/A140204/14053842/",
        "Dishes": 3.01,
        "Service": 3.02,
        "Atmosphere": 3.01,
        "Cost": 3,
        "Drinks": 3,
        "Latitude": 35.5361866,
        "Longitude": 139.6308157
    },
    {
        "Name": "Shokusaiwagyuushigekichi",
        "Address": "2-1-3 Fukaminishi Yamato Kanagawa",
        "Url": "http://tabelog.com/en/kanagawa/A1407/A140702/14003476/",
        "Dishes": 3.52,
        "Service": 3.5,
        "Atmosphere": 3.38,
        "Cost": 3.43,
        "Drinks": 3.11,
        "Latitude": 35.4751933,
        "Longitude": 139.4622808
    },
    {
        "Name": "Hoahoa",
        "Address": "1-4-25 Hiyoshihoncho Kohoku-ku Yokohama Kanagawa",
        "Url": "http://tabelog.com/en/kanagawa/A1401/A140204/14006626/",
        "Dishes": 3.27,
        "Service": 3.22,
        "Atmosphere": 3.31,
        "Cost": 3.09,
        "Drinks": 3.03,
        "Latitude": 35.5542361,
        "Longitude": 139.6452889
    },
    {
        "Name": "Nambou",
        "Address": "神奈川県横浜市旭区鶴ヶ峰2-3-1",
        "Url": "http://tabelog.com/en/kanagawa/A1401/A140302/14012067/",
        "Dishes": 3.01,
        "Service": 3.01,
        "Atmosphere": 3.01,
        "Cost": 3,
        "Drinks": 3.01,
        "Latitude": 35.475278,
        "Longitude": 139.5464557
    },
    {
        "Name": "Keitokuchin",
        "Address": "138 Yamashitacho Naka-ku Yokohama Kanagawa",
        "Url": "http://tabelog.com/en/kanagawa/A1401/A140105/14031825/",
        "Dishes": 3.51,
        "Service": 3.17,
        "Atmosphere": 3.15,
        "Cost": 3.28,
        "Drinks": 3.13,
        "Latitude": 35.4425774,
        "Longitude": 139.6458973
    },
    {
        "Name": "Maruza",
        "Address": "1-14-3 Kamiookanishi Konan-ku Yokohama Kanagawa",
        "Url": "http://tabelog.com/en/kanagawa/A1401/A140307/14001013/",
        "Dishes": 3.05,
        "Service": 3,
        "Atmosphere": 3.01,
        "Cost": 3,
        "Drinks": 3,
        "Latitude": 35.4101398,
        "Longitude": 139.5958578
    },
    {
        "Name": "Toukyouraisuwain",
        "Address": "1-6-3 Kamiasao Asao-ku Kawasaki Kanagawa",
        "Url": "http://tabelog.com/en/kanagawa/A1405/A140508/14054384/",
        "Dishes": 3.04,
        "Service": 3.09,
        "Atmosphere": 3.16,
        "Cost": 3.06,
        "Drinks": 3.12,
        "Latitude": 35.6019444,
        "Longitude": 139.5097021
    },
    {
        "Name": "Sangendou",
        "Address": "1-11-23 Ofuna Kamakura Kanagawa",
        "Url": "http://tabelog.com/en/kanagawa/A1404/A140401/14005587/",
        "Dishes": 3.02,
        "Service": 3.02,
        "Atmosphere": 3.02,
        "Cost": 3.02,
        "Drinks": 3.02,
        "Latitude": 35.3521521,
        "Longitude": 139.5317658
    },
    {
        "Name": "Kafeeithieito",
        "Address": "88 Yamashitacho Naka-ku Yokohama Kanagawa",
        "Url": "http://tabelog.com/en/kanagawa/A1401/A140104/14052892/",
        "Dishes": 3.43,
        "Service": 3.32,
        "Atmosphere": 3.5,
        "Cost": 3.46,
        "Drinks": 3.4,
        "Latitude": 35.44223849999999,
        "Longitude": 139.6502998
    },
    {
        "Name": "Kushikatsudengana",
        "Address": "2-1 Ogawacho Kawasaki-ku Kawasaki Kanagawa",
        "Url": "http://tabelog.com/en/kanagawa/A1405/A140501/14036701/",
        "Dishes": 3.07,
        "Service": 3,
        "Atmosphere": 3.05,
        "Cost": 3.04,
        "Drinks": 3.01,
        "Latitude": 35.5287394,
        "Longitude": 139.6988071
    },
    {
        "Name": "Kotobukiyahanare",
        "Address": "1-2-2 Hisamoto Takatsu-ku Kawasaki Kanagawa",
        "Url": "http://tabelog.com/en/kanagawa/A1405/A140505/14057603/",
        "Dishes": 3,
        "Service": 3,
        "Atmosphere": 3.01,
        "Cost": 3,
        "Drinks": 3,
        "Latitude": 35.598729,
        "Longitude": 139.6094986
    },
    {
        "Name": "Yanawaraba",
        "Address": "1-12-14 Mizonokuchi Takatsu-ku Kawasaki Kanagawa",
        "Url": "http://tabelog.com/en/kanagawa/A1405/A140505/14021138/",
        "Dishes": 3.07,
        "Service": 3.07,
        "Atmosphere": 3.07,
        "Cost": 3.04,
        "Drinks": 3.13,
        "Latitude": 35.6003954,
        "Longitude": 139.6131064
    },
    {
        "Name": "Yadaizushi",
        "Address": "18-14 Matsugaecho Minami-ku Sagamihara Kanagawa",
        "Url": "http://tabelog.com/en/kanagawa/A1407/A140701/14029954/",
        "Dishes": 3,
        "Service": 3,
        "Atmosphere": 3,
        "Cost": 3,
        "Drinks": 3,
        "Latitude": 35.5157065,
        "Longitude": 139.4241736
    },
    {
        "Name": "Shirokiya",
        "Address": "1-12-18 Mizonokuchi Takatsu-ku Kawasaki Kanagawa",
        "Url": "http://tabelog.com/en/kanagawa/A1405/A140505/14041017/",
        "Dishes": 3,
        "Service": 3,
        "Atmosphere": 3,
        "Cost": 3,
        "Drinks": 3,
        "Latitude": 35.6003537,
        "Longitude": 139.6134064
    },
    {
        "Name": "Bashamichinohimonoya",
        "Address": "4-43 Masagocho Naka-ku Yokohama Kanagawa",
        "Url": "http://tabelog.com/en/kanagawa/A1401/A140104/14003342/",
        "Dishes": 3.02,
        "Service": 3.01,
        "Atmosphere": 3.01,
        "Cost": 3.01,
        "Drinks": 3,
        "Latitude": 35.4457687,
        "Longitude": 139.6350812
    },
    {
        "Name": "Mammaru",
        "Address": "2-50 Aioicho Naka-ku Yokohama Kanagawa",
        "Url": "http://tabelog.com/en/kanagawa/A1401/A140104/14007269/",
        "Dishes": 3.09,
        "Service": 2.99,
        "Atmosphere": 3.01,
        "Cost": 3.03,
        "Drinks": 3.02,
        "Latitude": 35.4464769,
        "Longitude": 139.6383115
    },
    {
        "Name": "Sennennoutage",
        "Address": "1-17-1 Manpukuji Asao-ku Kawasaki Kanagawa",
        "Url": "http://tabelog.com/en/kanagawa/A1405/A140508/14008316/",
        "Dishes": 3,
        "Service": 3,
        "Atmosphere": 3,
        "Cost": 3,
        "Drinks": 3,
        "Latitude": 35.604455,
        "Longitude": 139.5075771
    },
    {
        "Name": "Shirokiya",
        "Address": "1-36 Hanasakicho Naka-ku Yokohama Kanagawa",
        "Url": "http://tabelog.com/en/kanagawa/A1401/A140102/14022374/",
        "Dishes": 3.03,
        "Service": 3,
        "Atmosphere": 3.02,
        "Cost": 3.05,
        "Drinks": 3.03,
        "Latitude": 35.4493321,
        "Longitude": 139.6306231
    },
    {
        "Name": "Tsubomi",
        "Address": "2-16-2 Tsuruyacho Kanagawa-ku Yokohama Kanagawa",
        "Url": "http://tabelog.com/en/kanagawa/A1401/A140101/14037975/",
        "Dishes": 2.98,
        "Service": 2.98,
        "Atmosphere": 3,
        "Cost": 2.98,
        "Drinks": 2.98,
        "Latitude": 35.4683132,
        "Longitude": 139.6231702
    },
    {
        "Name": "Saizeriya",
        "Address": "16-1 Totsukacho Totsuka-ku Yokohama Kanagawa",
        "Url": "http://tabelog.com/en/kanagawa/A1401/A140305/14035416/",
        "Dishes": 3,
        "Service": 3,
        "Atmosphere": 3,
        "Cost": 3.01,
        "Drinks": 3,
        "Latitude": 35.4015872,
        "Longitude": 139.5332269
    },
    {
        "Name": "Hokkaidou",
        "Address": "1-4-1 Kitasaiwai Nishi-ku Yokohama Kanagawa",
        "Url": "http://tabelog.com/en/kanagawa/A1401/A140101/14022383/",
        "Dishes": 3.06,
        "Service": 3,
        "Atmosphere": 3.06,
        "Cost": 3.05,
        "Drinks": 3,
        "Latitude": 35.4672994,
        "Longitude": 139.6195734
    },
    {
        "Name": "GRATIA",
        "Address": "2-11-23 Aobadai Aoba-ku Yokohama Kanagawa",
        "Url": "http://tabelog.com/en/kanagawa/A1401/A140202/14044501/",
        "Dishes": 3.56,
        "Service": 3.56,
        "Atmosphere": 3.53,
        "Cost": 3.56,
        "Drinks": 3.54,
        "Latitude": 35.547024,
        "Longitude": 139.5168094
    },
    {
        "Name": "Isshou",
        "Address": "4-18-4 Yabe Chuo-ku Sagamihara Kanagawa",
        "Url": "http://tabelog.com/en/kanagawa/A1407/A140701/14054603/",
        "Dishes": 3.34,
        "Service": 3.34,
        "Atmosphere": 3.4,
        "Cost": 3.28,
        "Drinks": 3.24,
        "Latitude": 35.5700614,
        "Longitude": 139.3885335
    },
    {
        "Name": "Yokohamauoman",
        "Address": "5-2 Ekimae Honcho Kawasaki-ku Kawasaki Kanagawa",
        "Url": "http://tabelog.com/en/kanagawa/A1405/A140501/14036799/",
        "Dishes": 2.99,
        "Service": 2.98,
        "Atmosphere": 2.99,
        "Cost": 3,
        "Drinks": 3.01,
        "Latitude": 35.53018369999999,
        "Longitude": 139.6990264
    },
    {
        "Name": "Kondou",
        "Address": "1-8-36 Yukinoshita Kamakura Kanagawa",
        "Url": "http://tabelog.com/en/kanagawa/A1404/A140402/14000253/",
        "Dishes": 3.28,
        "Service": 3.21,
        "Atmosphere": 3.21,
        "Cost": 3.22,
        "Drinks": 3.12,
        "Latitude": 35.3232639,
        "Longitude": 139.5543002
    },
    {
        "Name": "Uokuni",
        "Address": "1-1-9 Sakaecho Odawara Kanagawa",
        "Url": "http://tabelog.com/en/kanagawa/A1409/A140901/14006405/",
        "Dishes": 3.27,
        "Service": 3.22,
        "Atmosphere": 3.18,
        "Cost": 3.01,
        "Drinks": 3.16,
        "Latitude": 35.25584,
        "Longitude": 139.1555818
    },
    {
        "Name": "Kitchen SUZUYA",
        "Address": "1-5-9 Shimokodanaka Nakahara-ku Kawasaki Kanagawa",
        "Url": "http://tabelog.com/en/kanagawa/A1405/A140504/14037273/",
        "Dishes": 3.1,
        "Service": 3.11,
        "Atmosphere": 3.06,
        "Cost": 3.11,
        "Drinks": 3.09,
        "Latitude": 35.5810148,
        "Longitude": 139.639652
    },
    {
        "Name": "Satodorisankei",
        "Address": "1-1-7 Sakuragicho Naka-ku Yokohama Kanagawa",
        "Url": "http://tabelog.com/en/kanagawa/A1401/A140102/14055975/",
        "Dishes": 3.09,
        "Service": 3,
        "Atmosphere": 3.08,
        "Cost": 3.07,
        "Drinks": 3,
        "Latitude": 35.4497142,
        "Longitude": 139.6310632
    },
    {
        "Name": "Hamafuufuu",
        "Address": "9-27-6 Konandai Konan-ku Yokohama Kanagawa",
        "Url": "http://tabelog.com/en/kanagawa/A1401/A140309/14005784/",
        "Dishes": 3.04,
        "Service": 3.08,
        "Atmosphere": 3.05,
        "Cost": 3.08,
        "Drinks": 3,
        "Latitude": 35.3699639,
        "Longitude": 139.577443
    },
    {
        "Name": "Aburiya",
        "Address": "2-3-10 Shinyokohama Kohoku-ku Yokohama Kanagawa",
        "Url": "http://tabelog.com/en/kanagawa/A1401/A140206/14030259/",
        "Dishes": 3.02,
        "Service": 3,
        "Atmosphere": 3,
        "Cost": 3.02,
        "Drinks": 3.01,
        "Latitude": 35.5083391,
        "Longitude": 139.615121
    },
    {
        "Name": "CAVOLLO CAFE",
        "Address": "2-19-2 Utsukushigaoka Aoba-ku Yokohama Kanagawa",
        "Url": "http://tabelog.com/en/kanagawa/A1401/A140201/14001388/",
        "Dishes": 3.09,
        "Service": 3,
        "Atmosphere": 3.14,
        "Cost": 3,
        "Drinks": 3.06,
        "Latitude": 35.5810622,
        "Longitude": 139.5585021
    },
    {
        "Name": "Hokkaidou",
        "Address": "1-1-3 Mizonokuchi Takatsu-ku Kawasaki Kanagawa",
        "Url": "http://tabelog.com/en/kanagawa/A1405/A140505/14047247/",
        "Dishes": 3.01,
        "Service": 3.01,
        "Atmosphere": 3.04,
        "Cost": 3.03,
        "Drinks": 3,
        "Latitude": 35.5988984,
        "Longitude": 139.6116289
    },
    {
        "Name": "azu-ro",
        "Address": "1-10-7 Ofuna Kamakura Kanagawa",
        "Url": "http://tabelog.com/en/kanagawa/A1404/A140401/14003514/",
        "Dishes": 3.13,
        "Service": 3.08,
        "Atmosphere": 3.17,
        "Cost": 3.18,
        "Drinks": 3.12,
        "Latitude": 35.3525854,
        "Longitude": 139.532088
    },
    {
        "Name": "Shimodazushi",
        "Address": "5-29-17 Shimodacho Kohoku-ku Yokohama Kanagawa",
        "Url": "http://tabelog.com/en/kanagawa/A1401/A140204/14020156/",
        "Dishes": 3,
        "Service": 3.08,
        "Atmosphere": 3,
        "Cost": 3,
        "Drinks": 3,
        "Latitude": 35.5574994,
        "Longitude": 139.6268266
    },
    {
        "Name": "Shichirinsumibiyakinikuyuurin",
        "Address": "2-25-1 Katahira Asao-ku Kawasaki Kanagawa",
        "Url": "http://tabelog.com/en/kanagawa/A1405/A140508/14025615/",
        "Dishes": 3.06,
        "Service": 3.06,
        "Atmosphere": 3.01,
        "Cost": 3.06,
        "Drinks": 3,
        "Latitude": 35.59388879999999,
        "Longitude": 139.4986834
    },
    {
        "Name": "Mamma Pasta",
        "Address": "1-7-11 Sakaecho Atsugi Kanagawa",
        "Url": "http://tabelog.com/en/kanagawa/A1408/A140802/14003852/",
        "Dishes": 3.08,
        "Service": 2.99,
        "Atmosphere": 3.03,
        "Cost": 3,
        "Drinks": 3.03,
        "Latitude": 35.441232,
        "Longitude": 139.3579671
    },
    {
        "Name": "kakitosakanakaihou",
        "Address": "3-6-1 Minatomirai Nishi-ku Yokohama Kanagawa",
        "Url": "http://tabelog.com/en/kanagawa/A1401/A140103/14053068/",
        "Dishes": 3.15,
        "Service": 3.07,
        "Atmosphere": 3.12,
        "Cost": 3.13,
        "Drinks": 3.14,
        "Latitude": 35.4574484,
        "Longitude": 139.6348484
    },
    {
        "Name": "Rakuichi",
        "Address": "2-19 Tsuruyacho Kanagawa-ku Yokohama Kanagawa",
        "Url": "http://tabelog.com/en/kanagawa/A1401/A140101/14008581/",
        "Dishes": 3.01,
        "Service": 3,
        "Atmosphere": 3,
        "Cost": 3,
        "Drinks": 3,
        "Latitude": 35.4691409,
        "Longitude": 139.6221981
    },
    {
        "Name": "Pinkuponikafe",
        "Address": "1-2 Yonegahamadori Yokosuka Kanagawa",
        "Url": "http://tabelog.com/en/kanagawa/A1406/A140601/14006682/",
        "Dishes": 3.04,
        "Service": 3.05,
        "Atmosphere": 3.06,
        "Cost": 3.06,
        "Drinks": 3.04,
        "Latitude": 35.2777858,
        "Longitude": 139.6747862
    },
    {
        "Name": "Uogashinihonichi",
        "Address": "5-1 Chigasakichuo Tsuzuki-ku Yokohama Kanagawa",
        "Url": "http://tabelog.com/en/kanagawa/A1401/A140203/14002846/",
        "Dishes": 3,
        "Service": 3,
        "Atmosphere": 3,
        "Cost": 3,
        "Drinks": 3,
        "Latitude": 35.5444257,
        "Longitude": 139.5724217
    },
    {
        "Name": "Shunsaishokkenhinano",
        "Address": "3-1-3 Konandai Konan-ku Yokohama Kanagawa",
        "Url": "http://tabelog.com/en/kanagawa/A1401/A140309/14038248/",
        "Dishes": 3.04,
        "Service": 3,
        "Atmosphere": 3.03,
        "Cost": 3.04,
        "Drinks": 3.01,
        "Latitude": 35.3747105,
        "Longitude": 139.5775402
    },
    {
        "Name": "Mongoruryourigara",
        "Address": "2-28 Bentendori Naka-ku Yokohama Kanagawa",
        "Url": "http://tabelog.com/en/kanagawa/A1401/A140104/14057478/",
        "Dishes": 3.24,
        "Service": 3.24,
        "Atmosphere": 3.3,
        "Cost": 3.24,
        "Drinks": 3.12,
        "Latitude": 35.4476518,
        "Longitude": 139.6391392
    },
    {
        "Name": "Tonchinkan",
        "Address": "2-17-8 Minamisaiwai Nishi-ku Yokohama Kanagawa",
        "Url": "http://tabelog.com/en/kanagawa/A1401/A140101/14028979/",
        "Dishes": 3.2,
        "Service": 3,
        "Atmosphere": 3.04,
        "Cost": 3.11,
        "Drinks": 3.1,
        "Latitude": 35.4637304,
        "Longitude": 139.6160934
    },
    {
        "Name": "Uotami",
        "Address": "1-3-7 Isago Kawasaki-ku Kawasaki Kanagawa",
        "Url": "http://tabelog.com/en/kanagawa/A1405/A140501/14013924/",
        "Dishes": 3.01,
        "Service": 3.01,
        "Atmosphere": 3.01,
        "Cost": 3.01,
        "Drinks": 3.01,
        "Latitude": 35.5320001,
        "Longitude": 139.7005735
    },
    {
        "Name": "Sakurasuisan",
        "Address": "1-31-2 Tsurumichuo Tsurumi-ku Yokohama Kanagawa",
        "Url": "http://tabelog.com/en/kanagawa/A1401/A140210/14004501/",
        "Dishes": 3,
        "Service": 3,
        "Atmosphere": 3,
        "Cost": 3.03,
        "Drinks": 3.01,
        "Latitude": 35.5070567,
        "Longitude": 139.6767847
    },
    {
        "Name": "Kappazushi",
        "Address": "3002-23 Shimotsuruma Yamato Kanagawa",
        "Url": "http://tabelog.com/en/kanagawa/A1407/A140702/14041098/",
        "Dishes": 2.99,
        "Service": 2.99,
        "Atmosphere": 2.99,
        "Cost": 3,
        "Drinks": 3,
        "Latitude": 35.4989985,
        "Longitude": 139.451719
    },
    {
        "Name": "Kan",
        "Address": "2-7-18 Mizonokuchi Takatsu-ku Kawasaki Kanagawa",
        "Url": "http://tabelog.com/en/kanagawa/A1405/A140505/14013063/",
        "Dishes": 3,
        "Service": 3,
        "Atmosphere": 3.03,
        "Cost": 3.03,
        "Drinks": 3,
        "Latitude": 35.6003537,
        "Longitude": 139.6098207
    },
    {
        "Name": "Sangendou",
        "Address": "3-2-48 Chuo Ebina Kanagawa",
        "Url": "http://tabelog.com/en/kanagawa/A1408/A140801/14002961/",
        "Dishes": 3,
        "Service": 3,
        "Atmosphere": 3.03,
        "Cost": 3,
        "Drinks": 3,
        "Latitude": 35.4510007,
        "Longitude": 139.3902697
    },
    {
        "Name": "Houraishunhanten",
        "Address": "2-2 Toyookacho Tsurumi-ku Yokohama Kanagawa",
        "Url": "http://tabelog.com/en/kanagawa/A1401/A140210/14008299/",
        "Dishes": 3.02,
        "Service": 3.05,
        "Atmosphere": 3.03,
        "Cost": 3.03,
        "Drinks": 3,
        "Latitude": 35.5089092,
        "Longitude": 139.6755847
    },
    {
        "Name": "Kaisendonyakaishuu",
        "Address": "1-14-55 Sakaecho Odawara Kanagawa",
        "Url": "http://tabelog.com/en/kanagawa/A1409/A140901/14042462/",
        "Dishes": 3.24,
        "Service": 3,
        "Atmosphere": 3.01,
        "Cost": 2.96,
        "Drinks": 3,
        "Latitude": 35.2544041,
        "Longitude": 139.1577761
    },
    {
        "Name": "Chikaraya",
        "Address": "2-6-11 Minamisaiwai Nishi-ku Yokohama Kanagawa",
        "Url": "http://tabelog.com/en/kanagawa/A1401/A140101/14007480/",
        "Dishes": 3.15,
        "Service": 3.01,
        "Atmosphere": 3.23,
        "Cost": 3.2,
        "Drinks": 3.15,
        "Latitude": 35.4634082,
        "Longitude": 139.6181932
    },
    {
        "Name": "Binchouougiya",
        "Address": "2-4-1 Shinjo Nakahara-ku Kawasaki Kanagawa",
        "Url": "http://tabelog.com/en/kanagawa/A1405/A140504/14014052/",
        "Dishes": 3,
        "Service": 3,
        "Atmosphere": 3,
        "Cost": 3.01,
        "Drinks": 3,
        "Latitude": 35.5836867,
        "Longitude": 139.6313971
    },
    {
        "Name": "Gyuukaku",
        "Address": "1-19-17 Hiyoshihoncho Kohoku-ku Yokohama Kanagawa",
        "Url": "http://tabelog.com/en/kanagawa/A1401/A140204/14029547/",
        "Dishes": 3,
        "Service": 3,
        "Atmosphere": 3,
        "Cost": 3,
        "Drinks": 3,
        "Latitude": 35.5534141,
        "Longitude": 139.6453667
    },
    {
        "Name": "Kokosu",
        "Address": "1627-1 Nippacho Kohoku-ku Yokohama Kanagawa",
        "Url": "http://tabelog.com/en/kanagawa/A1401/A140206/14040990/",
        "Dishes": 3,
        "Service": 3,
        "Atmosphere": 3,
        "Cost": 3.01,
        "Drinks": 3.01,
        "Latitude": 35.527826,
        "Longitude": 139.6109903
    },
    {
        "Name": "Shigorokusaikan",
        "Address": "202-1 Yamashitacho Naka-ku Yokohama Kanagawa",
        "Url": "http://tabelog.com/en/kanagawa/A1401/A140105/14002977/",
        "Dishes": 3.44,
        "Service": 3.05,
        "Atmosphere": 3.25,
        "Cost": 3.51,
        "Drinks": 3.17,
        "Latitude": 35.4430412,
        "Longitude": 139.6436002
    },
    {
        "Name": "Minatoichiya",
        "Address": "2-3-10 Shinyokohama Kohoku-ku Yokohama Kanagawa",
        "Url": "http://tabelog.com/en/kanagawa/A1401/A140206/14037128/",
        "Dishes": 3.08,
        "Service": 3.01,
        "Atmosphere": 3.47,
        "Cost": 3.25,
        "Drinks": 3.2,
        "Latitude": 35.5083391,
        "Longitude": 139.615121
    },
    {
        "Name": "Yamauchinoujou",
        "Address": "2-1-2 Minamifujisawa Fujisawa Kanagawa",
        "Url": "http://tabelog.com/en/kanagawa/A1404/A140404/14056570/",
        "Dishes": 3.01,
        "Service": 3.01,
        "Atmosphere": 3.01,
        "Cost": 3.01,
        "Drinks": 3.01,
        "Latitude": 35.3384815,
        "Longitude": 139.4888944
    },
    {
        "Name": "Taretare",
        "Address": "1-14-13 Shonandai Fujisawa Kanagawa",
        "Url": "http://tabelog.com/en/kanagawa/A1404/A140405/14012809/",
        "Dishes": 3,
        "Service": 3,
        "Atmosphere": 3.03,
        "Cost": 3,
        "Drinks": 3,
        "Latitude": 35.39519050000001,
        "Longitude": 139.4678736
    },
    {
        "Name": "Aen",
        "Address": "1-4-1 Mizonokuchi Takatsu-ku Kawasaki Kanagawa",
        "Url": "http://tabelog.com/en/kanagawa/A1405/A140505/14007013/",
        "Dishes": 3.2,
        "Service": 3.04,
        "Atmosphere": 3.09,
        "Cost": 2.98,
        "Drinks": 2.98,
        "Latitude": 35.5992261,
        "Longitude": 139.612826
    },
    {
        "Name": "Toutenkou",
        "Address": "1-1-67 Sakuragicho Naka-ku Yokohama Kanagawa",
        "Url": "http://tabelog.com/en/kanagawa/A1401/A140104/14006043/",
        "Dishes": 3.03,
        "Service": 3,
        "Atmosphere": 3.1,
        "Cost": 3.02,
        "Drinks": 3.02,
        "Latitude": 35.4497142,
        "Longitude": 139.6310632
    },
    {
        "Name": "Yousukou",
        "Address": "2-28 Bentendori Naka-ku Yokohama Kanagawa",
        "Url": "http://tabelog.com/en/kanagawa/A1401/A140104/14030629/",
        "Dishes": 3.38,
        "Service": 3.18,
        "Atmosphere": 3.3,
        "Cost": 3.25,
        "Drinks": 3.13,
        "Latitude": 35.4476518,
        "Longitude": 139.6391392
    },
    {
        "Name": "Kakigoya",
        "Address": "1-1-7 Sakuragicho Naka-ku Yokohama Kanagawa",
        "Url": "http://tabelog.com/en/kanagawa/A1401/A140101/14052768/",
        "Dishes": 3.1,
        "Service": 2.97,
        "Atmosphere": 2.99,
        "Cost": 2.98,
        "Drinks": 3,
        "Latitude": 35.4497142,
        "Longitude": 139.6310632
    },
    {
        "Name": "Domadoma",
        "Address": "1-31-2 Tsurumichuo Tsurumi-ku Yokohama Kanagawa",
        "Url": "http://tabelog.com/en/kanagawa/A1401/A140210/14037591/",
        "Dishes": 3.01,
        "Service": 3.01,
        "Atmosphere": 3.01,
        "Cost": 3,
        "Drinks": 3.01,
        "Latitude": 35.5070567,
        "Longitude": 139.6767847
    },
    {
        "Name": "Rasshu",
        "Address": "2-38-2 Tennocho Hodogaya-ku Yokohama Kanagawa",
        "Url": "http://tabelog.com/en/kanagawa/A1401/A140301/14008005/",
        "Dishes": 3.15,
        "Service": 3.23,
        "Atmosphere": 3.26,
        "Cost": 3.05,
        "Drinks": 3.15,
        "Latitude": 35.4548565,
        "Longitude": 139.6037146
    },
    {
        "Name": "Shichirinyakinikuanan",
        "Address": "2-2-7 Chuo Ebina Kanagawa",
        "Url": "http://tabelog.com/en/kanagawa/A1408/A140801/14011411/",
        "Dishes": 3.02,
        "Service": 3,
        "Atmosphere": 3.03,
        "Cost": 3.02,
        "Drinks": 3.03,
        "Latitude": 35.4486372,
        "Longitude": 139.3920141
    },
    {
        "Name": "Aiyuto",
        "Address": "2-71-3 Hanasakicho Naka-ku Yokohama Kanagawa",
        "Url": "http://tabelog.com/en/kanagawa/A1401/A140102/14055727/",
        "Dishes": 3.21,
        "Service": 3.14,
        "Atmosphere": 3.14,
        "Cost": 3.19,
        "Drinks": 3.16,
        "Latitude": 35.4496626,
        "Longitude": 139.6286871
    },
    {
        "Name": "Okonomiteppanyakitakezou",
        "Address": "1-2-9 Tsunashimanishi Kohoku-ku Yokohama Kanagawa",
        "Url": "http://tabelog.com/en/kanagawa/A1401/A140204/14000622/",
        "Dishes": 3.14,
        "Service": 3.1,
        "Atmosphere": 3.15,
        "Cost": 3.11,
        "Drinks": 3.11,
        "Latitude": 35.5379502,
        "Longitude": 139.6354986
    },
    {
        "Name": "Okano",
        "Address": "1-16-3 Okano Nishi-ku Yokohama Kanagawa",
        "Url": "http://tabelog.com/en/kanagawa/A1401/A140102/14040071/",
        "Dishes": 3,
        "Service": 3,
        "Atmosphere": 3,
        "Cost": 3,
        "Drinks": 3.08,
        "Latitude": 35.4635499,
        "Longitude": 139.6145964
    },
    {
        "Name": "Naokichi",
        "Address": "2-1-10 Chuo Yamato Kanagawa",
        "Url": "http://tabelog.com/en/kanagawa/A1407/A140702/14003527/",
        "Dishes": 3,
        "Service": 3,
        "Atmosphere": 3.08,
        "Cost": 3.02,
        "Drinks": 3.03,
        "Latitude": 35.470211,
        "Longitude": 139.4595424
    },
    {
        "Name": "Tompei",
        "Address": "1-9-15 Kamiookahigashi Konan-ku Yokohama Kanagawa",
        "Url": "http://tabelog.com/en/kanagawa/A1401/A140307/14047766/",
        "Dishes": 3.08,
        "Service": 3,
        "Atmosphere": 3,
        "Cost": 3.02,
        "Drinks": 3.03,
        "Latitude": 35.4100343,
        "Longitude": 139.5972576
    },
    {
        "Name": "Shikiha",
        "Address": "1-24-1 Ishikawacho Naka-ku Yokohama Kanagawa",
        "Url": "http://tabelog.com/en/kanagawa/A1401/A140105/14042720/",
        "Dishes": 3.34,
        "Service": 3.32,
        "Atmosphere": 3.36,
        "Cost": 3.53,
        "Drinks": 3.27,
        "Latitude": 35.4379668,
        "Longitude": 139.6450699
    },
    {
        "Name": "Samuraichampuru",
        "Address": "2-28-16 Mizonokuchi Takatsu-ku Kawasaki Kanagawa",
        "Url": "http://tabelog.com/en/kanagawa/A1405/A140505/14038510/",
        "Dishes": 3.19,
        "Service": 3.02,
        "Atmosphere": 3.18,
        "Cost": 3.13,
        "Drinks": 3.17,
        "Latitude": 35.6015591,
        "Longitude": 139.6093429
    },
    {
        "Name": "Hawai",
        "Address": "3-107-12 Isezakicho Naka-ku Yokohama Kanagawa",
        "Url": "http://tabelog.com/en/kanagawa/A1401/A140104/14048216/",
        "Dishes": 3.52,
        "Service": 3.25,
        "Atmosphere": 3.14,
        "Cost": 3.32,
        "Drinks": 3.28,
        "Latitude": 35.4418775,
        "Longitude": 139.6298595
    },
    {
        "Name": "Tsukinamiya",
        "Address": "2-6-21 Ofuna Kamakura Kanagawa",
        "Url": "http://tabelog.com/en/kanagawa/A1404/A140401/14008140/",
        "Dishes": 3.15,
        "Service": 3.14,
        "Atmosphere": 3.05,
        "Cost": 3.15,
        "Drinks": 3.07,
        "Latitude": 35.3522104,
        "Longitude": 139.5357934
    },
    {
        "Name": "Itton",
        "Address": "4-7 Toyookacho Tsurumi-ku Yokohama Kanagawa",
        "Url": "http://tabelog.com/en/kanagawa/A1401/A140210/14054281/",
        "Dishes": 3.05,
        "Service": 3.02,
        "Atmosphere": 3.01,
        "Cost": 3.05,
        "Drinks": 3,
        "Latitude": 35.5061151,
        "Longitude": 139.675196
    },
    {
        "Name": "Roiyaruhosuto",
        "Address": "3-4-4 Harajuku Totsuka-ku Yokohama Kanagawa",
        "Url": "http://tabelog.com/en/kanagawa/A1401/A140305/14043406/",
        "Dishes": 3.06,
        "Service": 3.04,
        "Atmosphere": 3.04,
        "Cost": 3.04,
        "Drinks": 3.03,
        "Latitude": 35.3817738,
        "Longitude": 139.5029676
    },
    {
        "Name": "Bijiya",
        "Address": "3-6-3 Seki Tama-ku Kawasaki Kanagawa",
        "Url": "http://tabelog.com/en/kanagawa/A1405/A140505/14032702/",
        "Dishes": 3.02,
        "Service": 3,
        "Atmosphere": 3.01,
        "Cost": 3.01,
        "Drinks": 3.01,
        "Latitude": 35.6117518,
        "Longitude": 139.5929968
    },
    {
        "Name": "IL PINOLO",
        "Address": "4-1 Ogawacho Kawasaki-ku Kawasaki Kanagawa",
        "Url": "http://tabelog.com/en/kanagawa/A1405/A140501/14000010/",
        "Dishes": 3.16,
        "Service": 3.23,
        "Atmosphere": 3.3,
        "Cost": 3.1,
        "Drinks": 3.06,
        "Latitude": 35.5280451,
        "Longitude": 139.6979238
    },
    {
        "Name": "Onzoushikiyoyasutei",
        "Address": "1-2-18 Shichirigahamahigashi Kamakura Kanagawa",
        "Url": "http://tabelog.com/en/kanagawa/A1404/A140402/14030467/",
        "Dishes": 3.19,
        "Service": 3.18,
        "Atmosphere": 3.21,
        "Cost": 3.09,
        "Drinks": 3.06,
        "Latitude": 35.3065761,
        "Longitude": 139.5151948
    },
    {
        "Name": "Tamainohorumon",
        "Address": "1-12-18 Mizonokuchi Takatsu-ku Kawasaki Kanagawa",
        "Url": "http://tabelog.com/en/kanagawa/A1405/A140505/14014072/",
        "Dishes": 3.06,
        "Service": 3,
        "Atmosphere": 3,
        "Cost": 3.21,
        "Drinks": 3.06,
        "Latitude": 35.6003537,
        "Longitude": 139.6134064
    },
    {
        "Name": "Ushinoyodare",
        "Address": "1-11 Nisshincho Kawasaki-ku Kawasaki Kanagawa",
        "Url": "http://tabelog.com/en/kanagawa/A1405/A140501/14008388/",
        "Dishes": 3,
        "Service": 3,
        "Atmosphere": 3,
        "Cost": 3,
        "Drinks": 2.99,
        "Latitude": 35.5294171,
        "Longitude": 139.6967267
    },
    {
        "Name": "Issa",
        "Address": "1-1-7 Sakuragicho Naka-ku Yokohama Kanagawa",
        "Url": "http://tabelog.com/en/kanagawa/A1401/A140102/14035105/",
        "Dishes": 3,
        "Service": 3.12,
        "Atmosphere": 3.2,
        "Cost": 3.05,
        "Drinks": 3.03,
        "Latitude": 35.4497142,
        "Longitude": 139.6310632
    },
    {
        "Name": "Sammaruku",
        "Address": "1-1-7 Sakuragicho Naka-ku Yokohama Kanagawa",
        "Url": "http://tabelog.com/en/kanagawa/A1401/A140102/14035113/",
        "Dishes": 3.05,
        "Service": 3.05,
        "Atmosphere": 3.14,
        "Cost": 3.09,
        "Drinks": 3,
        "Latitude": 35.4497142,
        "Longitude": 139.6310632
    },
    {
        "Name": "Q:U",
        "Address": "Noborito Tama-ku Kawasaki Kanagawa",
        "Url": "http://tabelog.com/en/kanagawa/A1405/A140506/14058267/",
        "Dishes": 3.16,
        "Service": 3.09,
        "Atmosphere": 3.06,
        "Cost": 3.06,
        "Drinks": 3.01,
        "Latitude": 35.6205085,
        "Longitude": 139.5687792
    },
    {
        "Name": "Kushikatsudengana",
        "Address": "1-7-12 Minamirinkan Yamato Kanagawa",
        "Url": "http://tabelog.com/en/kanagawa/A1407/A140702/14057558/",
        "Dishes": 3,
        "Service": 3.01,
        "Atmosphere": 3,
        "Cost": 3,
        "Drinks": 3,
        "Latitude": 35.4951939,
        "Longitude": 139.4474501
    },
    {
        "Name": "Naokichi",
        "Address": "1-8-1 Chuo Ebina Kanagawa",
        "Url": "http://tabelog.com/en/kanagawa/A1408/A140801/14003528/",
        "Dishes": 3.02,
        "Service": 3,
        "Atmosphere": 3.02,
        "Cost": 3,
        "Drinks": 3,
        "Latitude": 35.4536087,
        "Longitude": 139.3926584
    },
    {
        "Name": "gyuusha",
        "Address": "Hagoromocho Naka-ku Yokohama Kanagawa",
        "Url": "http://tabelog.com/en/kanagawa/A1401/A140104/14047019/",
        "Dishes": 3.21,
        "Service": 3.19,
        "Atmosphere": 3.18,
        "Cost": 3.18,
        "Drinks": 3.2,
        "Latitude": 35.442769,
        "Longitude": 139.6329232
    },
    {
        "Name": "Daichinrou",
        "Address": "202 Yamashitacho Naka-ku Yokohama Kanagawa",
        "Url": "http://tabelog.com/en/kanagawa/A1401/A140105/14003114/",
        "Dishes": 3.52,
        "Service": 3.37,
        "Atmosphere": 3.37,
        "Cost": 3.51,
        "Drinks": 3.4,
        "Latitude": 35.4430412,
        "Longitude": 139.6436002
    },
    {
        "Name": "Tsukinoutage",
        "Address": "1-1-13 Kitasaiwai Nishi-ku Yokohama Kanagawa",
        "Url": "http://tabelog.com/en/kanagawa/A1401/A140101/14012878/",
        "Dishes": 3.03,
        "Service": 3.02,
        "Atmosphere": 3.08,
        "Cost": 3.02,
        "Drinks": 3,
        "Latitude": 35.4674661,
        "Longitude": 139.6211927
    },
    {
        "Name": "Taiyou",
        "Address": "2-5-14 Kizuki Nakahara-ku Kawasaki Kanagawa",
        "Url": "http://tabelog.com/en/kanagawa/A1405/A140504/14058137/",
        "Dishes": 3.23,
        "Service": 3.26,
        "Atmosphere": 3.23,
        "Cost": 3.15,
        "Drinks": 3.23,
        "Latitude": 35.5646287,
        "Longitude": 139.6548794
    },
    {
        "Name": "Jinshouken",
        "Address": "3-28-13 Shimonagaya Konan-ku Yokohama Kanagawa",
        "Url": "http://tabelog.com/en/kanagawa/A1401/A140307/14043187/",
        "Dishes": 3.27,
        "Service": 3.08,
        "Atmosphere": 3.51,
        "Cost": 3.09,
        "Drinks": 2.98,
        "Latitude": 35.4078842,
        "Longitude": 139.5642913
    },
    {
        "Name": "Sushihiro",
        "Address": "2-18 Yayoicho Naka-ku Yokohama Kanagawa",
        "Url": "http://tabelog.com/en/kanagawa/A1401/A140104/14033416/",
        "Dishes": 3.01,
        "Service": 3.12,
        "Atmosphere": 3.09,
        "Cost": 3.09,
        "Drinks": 3.08,
        "Latitude": 35.4402721,
        "Longitude": 139.6299457
    },
    {
        "Name": "Inkontoro",
        "Address": "1-26-3 Motomachi Naka-ku Yokohama Kanagawa",
        "Url": "http://tabelog.com/en/kanagawa/A1401/A140105/14035422/",
        "Dishes": 3.14,
        "Service": 3.05,
        "Atmosphere": 3.04,
        "Cost": 3.07,
        "Drinks": 3.03,
        "Latitude": 35.4408026,
        "Longitude": 139.64975
    },
    {
        "Name": "Manjuen",
        "Address": "138 Yamashitacho Naka-ku Yokohama Kanagawa",
        "Url": "http://tabelog.com/en/kanagawa/A1401/A140105/14001173/",
        "Dishes": 3.03,
        "Service": 2.98,
        "Atmosphere": 2.97,
        "Cost": 2.99,
        "Drinks": 3,
        "Latitude": 35.4425774,
        "Longitude": 139.6458973
    },
    {
        "Name": "Fukutenkatsu",
        "Address": "16-1 Totsukacho Totsuka-ku Yokohama Kanagawa",
        "Url": "http://tabelog.com/en/kanagawa/A1401/A140305/14035490/",
        "Dishes": 3.22,
        "Service": 3.14,
        "Atmosphere": 3.11,
        "Cost": 3.44,
        "Drinks": 3,
        "Latitude": 35.4015872,
        "Longitude": 139.5332269
    },
    {
        "Name": "Hamazushi",
        "Address": "1-4-1 Chuo Ebina Kanagawa",
        "Url": "http://tabelog.com/en/kanagawa/A1408/A140801/14045552/",
        "Dishes": 2.99,
        "Service": 3,
        "Atmosphere": 3.01,
        "Cost": 3.05,
        "Drinks": 3,
        "Latitude": 35.4519951,
        "Longitude": 139.3935612
    },
    {
        "Name": "Kyoutogiommonsen",
        "Address": "3-6-1 Minatomirai Nishi-ku Yokohama Kanagawa",
        "Url": "http://tabelog.com/en/kanagawa/A1401/A140103/14056065/",
        "Dishes": 3.14,
        "Service": 3,
        "Atmosphere": 3.12,
        "Cost": 3.07,
        "Drinks": 3.12,
        "Latitude": 35.4574484,
        "Longitude": 139.6348484
    },
    {
        "Name": "arohabi-chikafe",
        "Address": "1-25-1 Nakagawachuo Tsuzuki-ku Yokohama Kanagawa",
        "Url": "http://tabelog.com/en/kanagawa/A1401/A140203/14032719/",
        "Dishes": 3,
        "Service": 3,
        "Atmosphere": 3,
        "Cost": 3,
        "Drinks": 3,
        "Latitude": 35.5516442,
        "Longitude": 139.579457
    },
    {
        "Name": "Imozoukiwami",
        "Address": "1-1-7 Sakuragicho Naka-ku Yokohama Kanagawa",
        "Url": "http://tabelog.com/en/kanagawa/A1401/A140102/14035112/",
        "Dishes": 3.09,
        "Service": 3.02,
        "Atmosphere": 3.09,
        "Cost": 3.03,
        "Drinks": 3.06,
        "Latitude": 35.4497142,
        "Longitude": 139.6310632
    },
    {
        "Name": "Totoriya",
        "Address": "2-3-10 Shinyokohama Kohoku-ku Yokohama Kanagawa",
        "Url": "http://tabelog.com/en/kanagawa/A1401/A140206/14052043/",
        "Dishes": 3.04,
        "Service": 3.01,
        "Atmosphere": 3,
        "Cost": 3.17,
        "Drinks": 3.05,
        "Latitude": 35.5083391,
        "Longitude": 139.615121
    },
    {
        "Name": "Enjin",
        "Address": "3-14-9 Sagamiono Minami-ku Sagamihara Kanagawa",
        "Url": "http://tabelog.com/en/kanagawa/A1407/A140701/14008498/",
        "Dishes": 3.09,
        "Service": 3.06,
        "Atmosphere": 3.06,
        "Cost": 3.03,
        "Drinks": 3.03,
        "Latitude": 35.5324941,
        "Longitude": 139.4362581
    },
    {
        "Name": "Kisoji",
        "Address": "5-10-16 Seishin Chuo-ku Sagamihara Kanagawa",
        "Url": "http://tabelog.com/en/kanagawa/A1407/A140701/14005760/",
        "Dishes": 3.02,
        "Service": 3.03,
        "Atmosphere": 3.03,
        "Cost": 3.03,
        "Drinks": 3.02,
        "Latitude": 35.5798611,
        "Longitude": 139.3593497
    },
    {
        "Name": "Kannaien",
        "Address": "1-6-17 Hinominami Konan-ku Yokohama Kanagawa",
        "Url": "http://tabelog.com/en/kanagawa/A1401/A140309/14010546/",
        "Dishes": 3.12,
        "Service": 3.07,
        "Atmosphere": 3.06,
        "Cost": 3,
        "Drinks": 3,
        "Latitude": 35.380857,
        "Longitude": 139.5778179
    },
    {
        "Name": "Hamazushi",
        "Address": "Seya-ku Yokohama Kanagawa",
        "Url": "http://tabelog.com/en/kanagawa/A1401/A140303/14035661/",
        "Dishes": 3.05,
        "Service": 3,
        "Atmosphere": 3.01,
        "Cost": 3.09,
        "Drinks": 3.01,
        "Latitude": 35.4660263,
        "Longitude": 139.4988596
    },
    {
        "Name": "Kenkouchuukaanseiren",
        "Address": "1-7 Honcho Naka-ku Yokohama Kanagawa",
        "Url": "http://tabelog.com/en/kanagawa/A1401/A140104/14036008/",
        "Dishes": 3,
        "Service": 3,
        "Atmosphere": 3,
        "Cost": 3.04,
        "Drinks": 3,
        "Latitude": 35.447549,
        "Longitude": 139.6408697
    },
    {
        "Name": "THE TOWER RESTAURANT YOKOHAMA",
        "Address": "15 Yamashitacho Naka-ku Yokohama Kanagawa",
        "Url": "http://tabelog.com/en/kanagawa/A1401/A140105/14030474/",
        "Dishes": 3.46,
        "Service": 3.53,
        "Atmosphere": 3.54,
        "Cost": 3.51,
        "Drinks": 3.52,
        "Latitude": 35.4439383,
        "Longitude": 139.6509414
    },
    {
        "Name": "Chikitateinagomi",
        "Address": "3-53 Aioicho Naka-ku Yokohama Kanagawa",
        "Url": "http://tabelog.com/en/kanagawa/A1401/A140104/14037607/",
        "Dishes": 3.32,
        "Service": 3.07,
        "Atmosphere": 3.35,
        "Cost": 3.05,
        "Drinks": 3.14,
        "Latitude": 35.4469241,
        "Longitude": 139.6380282
    },
    {
        "Name": "Zaraunji",
        "Address": "2-9-50 Chuo Ebina Kanagawa",
        "Url": "http://tabelog.com/en/kanagawa/A1408/A140801/14030519/",
        "Dishes": 2.99,
        "Service": 2.99,
        "Atmosphere": 3,
        "Cost": 2.99,
        "Drinks": 3,
        "Latitude": 35.4502509,
        "Longitude": 139.3954138
    },
    {
        "Name": "Kakoi",
        "Address": "1-13-1 Mizonokuchi Takatsu-ku Kawasaki Kanagawa",
        "Url": "http://tabelog.com/en/kanagawa/A1405/A140505/14014307/",
        "Dishes": 2.99,
        "Service": 2.99,
        "Atmosphere": 3.01,
        "Cost": 3,
        "Drinks": 3,
        "Latitude": 35.5998899,
        "Longitude": 139.6131675
    },
    {
        "Name": "Toriaezu",
        "Address": "1-7-11 Nakamachidai Tsuzuki-ku Yokohama Kanagawa",
        "Url": "http://tabelog.com/en/kanagawa/A1401/A140203/14047800/",
        "Dishes": 3.19,
        "Service": 3.03,
        "Atmosphere": 3.14,
        "Cost": 3.09,
        "Drinks": 3,
        "Latitude": 35.5356301,
        "Longitude": 139.589776
    },
    {
        "Name": "Bisutoroandosutekitampopo",
        "Address": "3-36 Bentendori Naka-ku Yokohama Kanagawa",
        "Url": "http://tabelog.com/en/kanagawa/A1401/A140104/14008836/",
        "Dishes": 3.23,
        "Service": 3.12,
        "Atmosphere": 3.1,
        "Cost": 3.15,
        "Drinks": 3.01,
        "Latitude": 35.447799,
        "Longitude": 139.638667
    },
    {
        "Name": "Kajiyabunzou",
        "Address": "4-2-1 Kamikodanaka Nakahara-ku Kawasaki Kanagawa",
        "Url": "http://tabelog.com/en/kanagawa/A1405/A140504/14007177/",
        "Dishes": 3.02,
        "Service": 3.01,
        "Atmosphere": 3.01,
        "Cost": 3.03,
        "Drinks": 3.01,
        "Latitude": 35.5813758,
        "Longitude": 139.6409824
    },
    {
        "Name": "GABURI",
        "Address": "2-1-20 Sakaecho Odawara Kanagawa",
        "Url": "http://tabelog.com/en/kanagawa/A1409/A140901/14056587/",
        "Dishes": 3.34,
        "Service": 3.41,
        "Atmosphere": 3.31,
        "Cost": 3.28,
        "Drinks": 3.31,
        "Latitude": 35.2557262,
        "Longitude": 139.1573677
    },
    {
        "Name": "Shouya",
        "Address": "4-17-29 Konandai Konan-ku Yokohama Kanagawa",
        "Url": "http://tabelog.com/en/kanagawa/A1401/A140309/14021088/",
        "Dishes": 3,
        "Service": 3,
        "Atmosphere": 3.01,
        "Cost": 3.03,
        "Drinks": 3,
        "Latitude": 35.375591,
        "Longitude": 139.5758653
    },
    {
        "Name": "Amatarou",
        "Address": "1-14-8 Kamiookanishi Konan-ku Yokohama Kanagawa",
        "Url": "http://tabelog.com/en/kanagawa/A1401/A140307/14012862/",
        "Dishes": 3.03,
        "Service": 3.02,
        "Atmosphere": 3.02,
        "Cost": 3.02,
        "Drinks": 3.02,
        "Latitude": 35.4097148,
        "Longitude": 139.5958217
    },
    {
        "Name": "Shounambisutorosaruparadaisu",
        "Address": "2-15 Shonandai Fujisawa Kanagawa",
        "Url": "http://tabelog.com/en/kanagawa/A1404/A140405/14054426/",
        "Dishes": 3.2,
        "Service": 3.01,
        "Atmosphere": 3.13,
        "Cost": 3,
        "Drinks": 3.01,
        "Latitude": 35.3960987,
        "Longitude": 139.4666931
    },
    {
        "Name": "MM THAI",
        "Address": "4-6-2 Minatomirai Nishi-ku Yokohama Kanagawa",
        "Url": "http://tabelog.com/en/kanagawa/A1401/A140103/14047002/",
        "Dishes": 3.02,
        "Service": 2.98,
        "Atmosphere": 3.27,
        "Cost": 2.99,
        "Drinks": 3.04,
        "Latitude": 35.4586949,
        "Longitude": 139.6292951
    },
    {
        "Name": "kawarakafeandodainingu",
        "Address": "7-7 Ekimae Honcho Kawasaki-ku Kawasaki Kanagawa",
        "Url": "http://tabelog.com/en/kanagawa/A1405/A140501/14043059/",
        "Dishes": 3.01,
        "Service": 2.99,
        "Atmosphere": 3.12,
        "Cost": 2.99,
        "Drinks": 3.03,
        "Latitude": 35.5305614,
        "Longitude": 139.6996042
    },
    {
        "Name": "Bondo",
        "Address": "1-4-7 Isezakicho Naka-ku Yokohama Kanagawa",
        "Url": "http://tabelog.com/en/kanagawa/A1401/A140104/14006698/",
        "Dishes": 3.18,
        "Service": 3.08,
        "Atmosphere": 3.17,
        "Cost": 3.12,
        "Drinks": 3.07,
        "Latitude": 35.4443883,
        "Longitude": 139.6329981
    },
    {
        "Name": "Shichirinyakinikuanan",
        "Address": "12-1 Nishicho Isogo-ku Yokohama Kanagawa",
        "Url": "http://tabelog.com/en/kanagawa/A1401/A140308/14048480/",
        "Dishes": 3,
        "Service": 3,
        "Atmosphere": 3,
        "Cost": 3.01,
        "Drinks": 3,
        "Latitude": 35.4164533,
        "Longitude": 139.6336678
    },
    {
        "Name": "LOKAHI",
        "Address": "1-10-13 Utsukushigaoka Aoba-ku Yokohama Kanagawa",
        "Url": "http://tabelog.com/en/kanagawa/A1401/A140201/14049500/",
        "Dishes": 3.27,
        "Service": 3.27,
        "Atmosphere": 3.25,
        "Cost": 3.24,
        "Drinks": 3.15,
        "Latitude": 35.5787848,
        "Longitude": 139.5557608
    },
    {
        "Name": "Shinron",
        "Address": "146 Yamashitacho Naka-ku Yokohama Kanagawa",
        "Url": "http://tabelog.com/en/kanagawa/A1401/A140105/14006822/",
        "Dishes": 3.55,
        "Service": 3.37,
        "Atmosphere": 3.35,
        "Cost": 3.54,
        "Drinks": 3.14,
        "Latitude": 35.4429218,
        "Longitude": 139.6453862
    },
    {
        "Name": "Tempujou",
        "Address": "4-6-2 Minatomirai Nishi-ku Yokohama Kanagawa",
        "Url": "http://tabelog.com/en/kanagawa/A1401/A140103/14045854/",
        "Dishes": 3.47,
        "Service": 3.29,
        "Atmosphere": 3.42,
        "Cost": 3.54,
        "Drinks": 3.48,
        "Latitude": 35.4586949,
        "Longitude": 139.6292951
    },
    {
        "Name": "Eikarou",
        "Address": "146 Yamashitacho Naka-ku Yokohama Kanagawa",
        "Url": "http://tabelog.com/en/kanagawa/A1401/A140105/14003525/",
        "Dishes": 2.98,
        "Service": 3,
        "Atmosphere": 3,
        "Cost": 3,
        "Drinks": 3,
        "Latitude": 35.4429218,
        "Longitude": 139.6453862
    },
    {
        "Name": "Wan din ki ",
        "Address": "2-19-12 Takashima Nishi-ku Yokohama Kanagawa",
        "Url": "http://tabelog.com/en/kanagawa/A1401/A140101/14047352/",
        "Dishes": 3.39,
        "Service": 3.13,
        "Atmosphere": 3.31,
        "Cost": 3.23,
        "Drinks": 3.04,
        "Latitude": 35.4647358,
        "Longitude": 139.6245619
    },
    {
        "Name": "Shaofeiyan",
        "Address": "4-76 Aioicho Naka-ku Yokohama Kanagawa",
        "Url": "http://tabelog.com/en/kanagawa/A1401/A140104/14028983/",
        "Dishes": 3.23,
        "Service": 3.15,
        "Atmosphere": 3.12,
        "Cost": 3.01,
        "Drinks": 3.05,
        "Latitude": 35.4476268,
        "Longitude": 139.6361117
    },
    {
        "Name": "ROYALHOST",
        "Address": "1-1-1 Hironodai Zama Kanagawa",
        "Url": "http://tabelog.com/en/kanagawa/A1407/A140703/14032252/",
        "Dishes": 3,
        "Service": 3,
        "Atmosphere": 3,
        "Cost": 3,
        "Drinks": 3,
        "Latitude": 35.5069534,
        "Longitude": 139.4126971
    },
    {
        "Name": "Furesshunesubaga",
        "Address": "3-472 Kosugimachi Nakahara-ku Kawasaki Kanagawa",
        "Url": "http://tabelog.com/en/kanagawa/A1405/A140504/14050289/",
        "Dishes": 3.02,
        "Service": 3.01,
        "Atmosphere": 3.02,
        "Cost": 2.99,
        "Drinks": 3,
        "Latitude": 35.5756545,
        "Longitude": 139.6595533
    },
    {
        "Name": "Totsukabarusutairupakino",
        "Address": "4897 Totsukacho Totsuka-ku Yokohama Kanagawa",
        "Url": "http://tabelog.com/en/kanagawa/A1401/A140305/14054903/",
        "Dishes": 3.22,
        "Service": 3.22,
        "Atmosphere": 3.21,
        "Cost": 3.32,
        "Drinks": 3.41,
        "Latitude": 35.4019982,
        "Longitude": 139.5307742
    },
    {
        "Name": "Sumiyakidai",
        "Address": "2-14-12 Utsukushigaoka Aoba-ku Yokohama Kanagawa",
        "Url": "http://tabelog.com/en/kanagawa/A1401/A140201/14050388/",
        "Dishes": 3.23,
        "Service": 3.2,
        "Atmosphere": 3.2,
        "Cost": 3.1,
        "Drinks": 3.07,
        "Latitude": 35.5790208,
        "Longitude": 139.5595383
    },
    {
        "Name": "Kaisendokorosushitsune",
        "Address": "1-1-3 Mizonokuchi Takatsu-ku Kawasaki Kanagawa",
        "Url": "http://tabelog.com/en/kanagawa/A1405/A140505/14011044/",
        "Dishes": 3.14,
        "Service": 3,
        "Atmosphere": 3.1,
        "Cost": 3.15,
        "Drinks": 3.02,
        "Latitude": 35.5988984,
        "Longitude": 139.6116289
    },
    {
        "Name": "Shabushabuonyasai",
        "Address": "539-7 Shinanocho Totsuka-ku Yokohama Kanagawa",
        "Url": "http://tabelog.com/en/kanagawa/A1401/A140305/14008213/",
        "Dishes": 3,
        "Service": 3,
        "Atmosphere": 3,
        "Cost": 3,
        "Drinks": 3,
        "Latitude": 35.4310808,
        "Longitude": 139.5570912
    },
    {
        "Name": "Porta Montare",
        "Address": "3467-1 Noborito Tama-ku Kawasaki Kanagawa",
        "Url": "http://tabelog.com/en/kanagawa/A1405/A140506/14003440/",
        "Dishes": 3.17,
        "Service": 3.12,
        "Atmosphere": 3.21,
        "Cost": 3.34,
        "Drinks": 3.13,
        "Latitude": 35.6202475,
        "Longitude": 139.5704596
    },
    {
        "Name": "Shinyokohamarantorakutokafeandodainingu",
        "Address": "2-15-4 Shinyokohama Kohoku-ku Yokohama Kanagawa",
        "Url": "http://tabelog.com/en/kanagawa/A1401/A140206/14046057/",
        "Dishes": 3.29,
        "Service": 3.42,
        "Atmosphere": 3.51,
        "Cost": 3.29,
        "Drinks": 3.24,
        "Latitude": 35.5101889,
        "Longitude": 139.6148737
    },
    {
        "Name": "Saizeriya",
        "Address": "535 Shinanocho Totsuka-ku Yokohama Kanagawa",
        "Url": "http://tabelog.com/en/kanagawa/A1401/A140305/14027280/",
        "Dishes": 3,
        "Service": 3.01,
        "Atmosphere": 3.01,
        "Cost": 3.01,
        "Drinks": 3,
        "Latitude": 35.4305504,
        "Longitude": 139.5618854
    },
    {
        "Name": "Hamazushi",
        "Address": "12-1 Honmokuhara Naka-ku Yokohama Kanagawa",
        "Url": "http://tabelog.com/en/kanagawa/A1401/A140106/14047045/",
        "Dishes": 3,
        "Service": 3,
        "Atmosphere": 3,
        "Cost": 3.03,
        "Drinks": 2.99,
        "Latitude": 35.4254491,
        "Longitude": 139.6650934
    },
    {
        "Name": "Kaisenizakayasansen",
        "Address": "2-1-29 Sakaecho Odawara Kanagawa",
        "Url": "http://tabelog.com/en/kanagawa/A1409/A140901/14038472/",
        "Dishes": 3.19,
        "Service": 2.99,
        "Atmosphere": 3.05,
        "Cost": 3.18,
        "Drinks": 3.01,
        "Latitude": 35.2555984,
        "Longitude": 139.1572233
    },
    {
        "Name": "KUSA",
        "Address": "2-28 Miyagawacho Naka-ku Yokohama Kanagawa",
        "Url": "http://tabelog.com/en/kanagawa/A1401/A140102/14055429/",
        "Dishes": 3.12,
        "Service": 3.06,
        "Atmosphere": 3.06,
        "Cost": 3.12,
        "Drinks": 3.06,
        "Latitude": 35.4468574,
        "Longitude": 139.629826
    },
    {
        "Name": "Sakurasuisan",
        "Address": "1-1 Izumicho Atsugi Kanagawa",
        "Url": "http://tabelog.com/en/kanagawa/A1408/A140802/14011771/",
        "Dishes": 3.01,
        "Service": 3,
        "Atmosphere": 3,
        "Cost": 3.06,
        "Drinks": 3,
        "Latitude": 35.4393657,
        "Longitude": 139.3643026
    },
    {
        "Name": "Juukeisarou",
        "Address": "185 Yamashitacho Naka-ku Yokohama Kanagawa",
        "Url": "http://tabelog.com/en/kanagawa/A1401/A140105/14000494/",
        "Dishes": 3.18,
        "Service": 3.08,
        "Atmosphere": 3.04,
        "Cost": 3.2,
        "Drinks": 3.11,
        "Latitude": 35.4435467,
        "Longitude": 139.6473194
    },
    {
        "Name": "Inoichibanya",
        "Address": "1-39-7 Nakagawachuo Tsuzuki-ku Yokohama Kanagawa",
        "Url": "http://tabelog.com/en/kanagawa/A1401/A140203/14033052/",
        "Dishes": 3,
        "Service": 3,
        "Atmosphere": 3.01,
        "Cost": 2.99,
        "Drinks": 3,
        "Latitude": 35.5552299,
        "Longitude": 139.5816873
    },
    {
        "Name": "Sangendou",
        "Address": "1-10 Kinkocho Kanagawa-ku Yokohama Kanagawa",
        "Url": "http://tabelog.com/en/kanagawa/A1401/A140101/14005585/",
        "Dishes": 3.01,
        "Service": 3,
        "Atmosphere": 3.01,
        "Cost": 3.01,
        "Drinks": 3,
        "Latitude": 35.4665051,
        "Longitude": 139.6266506
    },
    {
        "Name": "Kankanshouten",
        "Address": "1-1-1 Arima Miyamae-ku Kawasaki Kanagawa",
        "Url": "http://tabelog.com/en/kanagawa/A1405/A140507/14005282/",
        "Dishes": 3.01,
        "Service": 3,
        "Atmosphere": 3.02,
        "Cost": 3,
        "Drinks": 3,
        "Latitude": 35.5782487,
        "Longitude": 139.5757285
    },
    {
        "Name": "Tokiakari",
        "Address": "2-16-2 Tsuruyacho Kanagawa-ku Yokohama Kanagawa",
        "Url": "http://tabelog.com/en/kanagawa/A1401/A140101/14032123/",
        "Dishes": 3.01,
        "Service": 3.01,
        "Atmosphere": 3,
        "Cost": 3.01,
        "Drinks": 3.01,
        "Latitude": 35.4683132,
        "Longitude": 139.6231702
    },
    {
        "Name": "Yansannodaidokoro",
        "Address": "48 Fukutomicho Nishidori Naka-ku Yokohama Kanagawa",
        "Url": "http://tabelog.com/en/kanagawa/A1401/A140104/14008500/",
        "Dishes": 3.2,
        "Service": 3.04,
        "Atmosphere": 3,
        "Cost": 3.15,
        "Drinks": 3,
        "Latitude": 35.4454104,
        "Longitude": 139.6305899
    },
    {
        "Name": "Kurefu",
        "Address": "1-2-2 Hisamoto Takatsu-ku Kawasaki Kanagawa",
        "Url": "http://tabelog.com/en/kanagawa/A1405/A140505/14021837/",
        "Dishes": 3.13,
        "Service": 3.13,
        "Atmosphere": 3.13,
        "Cost": 3.12,
        "Drinks": 3.13,
        "Latitude": 35.598729,
        "Longitude": 139.6094986
    },
    {
        "Name": "Jajauma",
        "Address": "1-1-15 Kugenumatachibana Fujisawa Kanagawa",
        "Url": "http://tabelog.com/en/kanagawa/A1404/A140404/14042499/",
        "Dishes": 3.1,
        "Service": 3.02,
        "Atmosphere": 3.06,
        "Cost": 3.02,
        "Drinks": 3,
        "Latitude": 35.3364539,
        "Longitude": 139.486003
    },
    {
        "Name": "Shinyokohamarantorakuto",
        "Address": "2-15-4 Shinyokohama Kohoku-ku Yokohama Kanagawa",
        "Url": "http://tabelog.com/en/kanagawa/A1401/A140206/14029925/",
        "Dishes": 3.33,
        "Service": 3.51,
        "Atmosphere": 3.54,
        "Cost": 3.52,
        "Drinks": 3.26,
        "Latitude": 35.5101889,
        "Longitude": 139.6148737
    },
    {
        "Name": "Karife",
        "Address": "1-10 Kinkocho Kanagawa-ku Yokohama Kanagawa",
        "Url": "http://tabelog.com/en/kanagawa/A1401/A140101/14015126/",
        "Dishes": 3.53,
        "Service": 3.08,
        "Atmosphere": 3.49,
        "Cost": 3.51,
        "Drinks": 3.03,
        "Latitude": 35.4665051,
        "Longitude": 139.6266506
    },
    {
        "Name": "Yokohamatenkadori",
        "Address": "1-4-1 Kitasaiwai Nishi-ku Yokohama Kanagawa",
        "Url": "http://tabelog.com/en/kanagawa/A1401/A140101/14005463/",
        "Dishes": 3.1,
        "Service": 3.04,
        "Atmosphere": 3.05,
        "Cost": 3.09,
        "Drinks": 3.05,
        "Latitude": 35.4672994,
        "Longitude": 139.6195734
    },
    {
        "Name": "Kenkempa",
        "Address": "10-8 Mitsuzawa Nakamachi Kanagawa-ku Yokohama Kanagawa",
        "Url": "http://tabelog.com/en/kanagawa/A1401/A140301/14044664/",
        "Dishes": 3,
        "Service": 3,
        "Atmosphere": 3,
        "Cost": 3,
        "Drinks": 3,
        "Latitude": 35.4766983,
        "Longitude": 139.6087108
    },
    {
        "Name": "Magunoria",
        "Address": "1-3-9 Hiranuma Nishi-ku Yokohama Kanagawa",
        "Url": "http://tabelog.com/en/kanagawa/A1401/A140102/14049482/",
        "Dishes": 3.03,
        "Service": 3.06,
        "Atmosphere": 3.03,
        "Cost": 3.06,
        "Drinks": 3.06,
        "Latitude": 35.4602114,
        "Longitude": 139.620718
    },
    {
        "Name": "Trattoria GHI-HEI",
        "Address": "3-13-1 Shinjo Nakahara-ku Kawasaki Kanagawa",
        "Url": "http://tabelog.com/en/kanagawa/A1405/A140504/14013379/",
        "Dishes": 3.32,
        "Service": 3.26,
        "Atmosphere": 3.23,
        "Cost": 3.15,
        "Drinks": 3.19,
        "Latitude": 35.5849827,
        "Longitude": 139.6302862
    },
    {
        "Name": "MOROCCA",
        "Address": "2-52 Aioicho Naka-ku Yokohama Kanagawa",
        "Url": "http://tabelog.com/en/kanagawa/A1401/A140104/14037385/",
        "Dishes": 3.34,
        "Service": 3.22,
        "Atmosphere": 3.4,
        "Cost": 3.31,
        "Drinks": 3.16,
        "Latitude": 35.4465075,
        "Longitude": 139.6380699
    },
    {
        "Name": "Famore",
        "Address": "769-2 Shinmarukomachi Nakahara-ku Kawasaki Kanagawa",
        "Url": "http://tabelog.com/en/kanagawa/A1405/A140504/14039700/",
        "Dishes": 3.13,
        "Service": 3.09,
        "Atmosphere": 3.13,
        "Cost": 3.18,
        "Drinks": 3.09,
        "Latitude": 35.5797788,
        "Longitude": 139.6610528
    },
    {
        "Name": "Sakuraya",
        "Address": "1-9 Yoshihamacho Naka-ku Yokohama Kanagawa",
        "Url": "http://tabelog.com/en/kanagawa/A1401/A140104/14003671/",
        "Dishes": 3.25,
        "Service": 3.18,
        "Atmosphere": 3.18,
        "Cost": 3.09,
        "Drinks": 3.1,
        "Latitude": 35.43996380000001,
        "Longitude": 139.642231
    },
    {
        "Name": "Furesshunesubaga",
        "Address": "3-104 Isezakicho Naka-ku Yokohama Kanagawa",
        "Url": "http://tabelog.com/en/kanagawa/A1401/A140104/14014556/",
        "Dishes": 3.04,
        "Service": 3.01,
        "Atmosphere": 3.03,
        "Cost": 3.03,
        "Drinks": 3.04,
        "Latitude": 35.4424163,
        "Longitude": 139.6297567
    },
    {
        "Name": "Uotami",
        "Address": "1-36 Hanasakicho Naka-ku Yokohama Kanagawa",
        "Url": "http://tabelog.com/en/kanagawa/A1401/A140102/14013076/",
        "Dishes": 3,
        "Service": 3,
        "Atmosphere": 3.02,
        "Cost": 3.04,
        "Drinks": 3.04,
        "Latitude": 35.4493321,
        "Longitude": 139.6306231
    },
    {
        "Name": "Jukuseinikubarureddokingukonguhashimoto",
        "Address": "Hashimoto Midori-ku Sagamihara Kanagawa",
        "Url": "http://tabelog.com/en/kanagawa/A1407/A140701/14059692/",
        "Dishes": 3.3,
        "Service": 3.24,
        "Atmosphere": 3.25,
        "Cost": 3.24,
        "Drinks": 3.23,
        "Latitude": 35.5996687,
        "Longitude": 139.3418118
    },
    {
        "Name": "Aburiya",
        "Address": "7-7 Ekimae Honcho Kawasaki-ku Kawasaki Kanagawa",
        "Url": "http://tabelog.com/en/kanagawa/A1405/A140501/14015380/",
        "Dishes": 2.99,
        "Service": 3.01,
        "Atmosphere": 3,
        "Cost": 3,
        "Drinks": 3,
        "Latitude": 35.5305614,
        "Longitude": 139.6996042
    },
    {
        "Name": "ROCCOMAN",
        "Address": "Hiyoshihoncho Kohoku-ku Yokohama Kanagawa",
        "Url": "http://tabelog.com/en/kanagawa/A1401/A140204/14059978/",
        "Dishes": 3.06,
        "Service": 3.01,
        "Atmosphere": 3.06,
        "Cost": 3.06,
        "Drinks": 3.06,
        "Latitude": 35.5537223,
        "Longitude": 139.6456778
    },
    {
        "Name": "Shunsaisumibiyakidassai",
        "Address": "1-1-15 Kugenumatachibana Fujisawa Kanagawa",
        "Url": "http://tabelog.com/en/kanagawa/A1404/A140404/14007120/",
        "Dishes": 3.71,
        "Service": 3.6,
        "Atmosphere": 3.57,
        "Cost": 3.7,
        "Drinks": 3.73,
        "Latitude": 35.3364539,
        "Longitude": 139.486003
    },
    {
        "Name": "HIJITETU",
        "Address": "Eirakucho Minami-ku Yokohama Kanagawa",
        "Url": "http://tabelog.com/en/kanagawa/A1401/A140104/14012245/",
        "Dishes": 3.19,
        "Service": 3.12,
        "Atmosphere": 3.25,
        "Cost": 3.15,
        "Drinks": 3.18,
        "Latitude": 35.4377752,
        "Longitude": 139.6312846
    },
    {
        "Name": "Ebinindoneparuryouri",
        "Address": "2-7-3 Shimosakunobe Takatsu-ku Kawasaki Kanagawa",
        "Url": "http://tabelog.com/en/kanagawa/A1405/A140505/14054305/",
        "Dishes": 3.1,
        "Service": 3.02,
        "Atmosphere": 3.02,
        "Cost": 3.06,
        "Drinks": 3,
        "Latitude": 35.6002315,
        "Longitude": 139.6064961
    },
    {
        "Name": "ALLORA",
        "Address": "5-67 Otamachi Naka-ku Yokohama Kanagawa",
        "Url": "http://tabelog.com/en/kanagawa/A1401/A140104/14045023/",
        "Dishes": 3.46,
        "Service": 3.43,
        "Atmosphere": 3.41,
        "Cost": 3.52,
        "Drinks": 3.37,
        "Latitude": 35.4488905,
        "Longitude": 139.6355144
    },
    {
        "Name": "Haseshige",
        "Address": "2-6-3 Nishikanagawa Kanagawa-ku Yokohama Kanagawa",
        "Url": "http://tabelog.com/en/kanagawa/A1401/A140205/14015109/",
        "Dishes": 3.32,
        "Service": 3.21,
        "Atmosphere": 3.35,
        "Cost": 3.38,
        "Drinks": 3.35,
        "Latitude": 35.484989,
        "Longitude": 139.6279059
    },
    {
        "Name": "Obuntei",
        "Address": "4-4-10 Kurihama Yokosuka Kanagawa",
        "Url": "http://tabelog.com/en/kanagawa/A1406/A140601/14014053/",
        "Dishes": 3.04,
        "Service": 3.02,
        "Atmosphere": 3,
        "Cost": 3,
        "Drinks": 3,
        "Latitude": 35.2311295,
        "Longitude": 139.7025864
    },
    {
        "Name": "Posillipo e Napule",
        "Address": "1-6-31 Minamisaiwai Nishi-ku Yokohama Kanagawa",
        "Url": "http://tabelog.com/en/kanagawa/A1401/A140101/14029630/",
        "Dishes": 3.52,
        "Service": 3.53,
        "Atmosphere": 3.55,
        "Cost": 3.22,
        "Drinks": 3.5,
        "Latitude": 35.4657774,
        "Longitude": 139.6205984
    },
    {
        "Name": "Ajinomingei",
        "Address": "2700-1 Kouzu Odawara Kanagawa",
        "Url": "http://tabelog.com/en/kanagawa/A1409/A140901/14011035/",
        "Dishes": 3.01,
        "Service": 3,
        "Atmosphere": 3.02,
        "Cost": 3,
        "Drinks": 3,
        "Latitude": 35.2797463,
        "Longitude": 139.2012721
    },
    {
        "Name": "Hokkaidou",
        "Address": "2-1-2 Minamifujisawa Fujisawa Kanagawa",
        "Url": "http://tabelog.com/en/kanagawa/A1404/A140404/14006064/",
        "Dishes": 3.02,
        "Service": 3,
        "Atmosphere": 3,
        "Cost": 3,
        "Drinks": 3.01,
        "Latitude": 35.3384815,
        "Longitude": 139.4888944
    },
    {
        "Name": "Torinosampei",
        "Address": "2-1-15 Sakaecho Odawara Kanagawa",
        "Url": "http://tabelog.com/en/kanagawa/A1409/A140901/14056512/",
        "Dishes": 3.36,
        "Service": 3.2,
        "Atmosphere": 3.26,
        "Cost": 3.19,
        "Drinks": 3.06,
        "Latitude": 35.2561539,
        "Longitude": 139.157501
    },
    {
        "Name": "Shenranfon",
        "Address": "3467-1 Noborito Tama-ku Kawasaki Kanagawa",
        "Url": "http://tabelog.com/en/kanagawa/A1405/A140506/14007147/",
        "Dishes": 3.52,
        "Service": 3.56,
        "Atmosphere": 3.47,
        "Cost": 3.45,
        "Drinks": 3.37,
        "Latitude": 35.6202475,
        "Longitude": 139.5704596
    },
    {
        "Name": "Nangokushuka",
        "Address": "5-1 Chigasakichuo Tsuzuki-ku Yokohama Kanagawa",
        "Url": "http://tabelog.com/en/kanagawa/A1401/A140203/14001634/",
        "Dishes": 3.07,
        "Service": 3.1,
        "Atmosphere": 3.16,
        "Cost": 3,
        "Drinks": 3.01,
        "Latitude": 35.5444257,
        "Longitude": 139.5724217
    },
    {
        "Name": "Rakugamaseimenjo",
        "Address": "26-2 Ekimae Honcho Kawasaki-ku Kawasaki Kanagawa",
        "Url": "http://tabelog.com/en/kanagawa/A1405/A140501/14037085/",
        "Dishes": 3.05,
        "Service": 2.99,
        "Atmosphere": 3.01,
        "Cost": 3.18,
        "Drinks": 3,
        "Latitude": 35.5302226,
        "Longitude": 139.697371
    },
    {
        "Name": "Bochibochi",
        "Address": "5-3 Omiyacho Saiwai-ku Kawasaki Kanagawa",
        "Url": "http://tabelog.com/en/kanagawa/A1405/A140501/14008243/",
        "Dishes": 3.07,
        "Service": 3.02,
        "Atmosphere": 3.08,
        "Cost": 3.04,
        "Drinks": 3.03,
        "Latitude": 35.5314196,
        "Longitude": 139.6933019
    },
    {
        "Name": "Suehirokan",
        "Address": "543 Iizumi Odawara Kanagawa",
        "Url": "http://tabelog.com/en/kanagawa/A1409/A140901/14043318/",
        "Dishes": 3.18,
        "Service": 3.13,
        "Atmosphere": 3.14,
        "Cost": 3.1,
        "Drinks": 3,
        "Latitude": 35.2829812,
        "Longitude": 139.169334
    },
    {
        "Name": "Otomisan",
        "Address": "2-11-4 Tsuruyacho Kanagawa-ku Yokohama Kanagawa",
        "Url": "http://tabelog.com/en/kanagawa/A1401/A140101/14036834/",
        "Dishes": 3.35,
        "Service": 3.31,
        "Atmosphere": 3.18,
        "Cost": 3.03,
        "Drinks": 3.13,
        "Latitude": 35.4694067,
        "Longitude": 139.6205455
    },
    {
        "Name": "Arijou",
        "Address": "3-6-3 Minatomirai Nishi-ku Yokohama Kanagawa",
        "Url": "http://tabelog.com/en/kanagawa/A1401/A140103/14012943/",
        "Dishes": 3,
        "Service": 2.99,
        "Atmosphere": 3,
        "Cost": 3.01,
        "Drinks": 3,
        "Latitude": 35.4574484,
        "Longitude": 139.6348484
    },
    {
        "Name": "Mizutakiyakitoritochiichizu",
        "Address": "1-6-5 Isezakicho Naka-ku Yokohama Kanagawa",
        "Url": "http://tabelog.com/en/kanagawa/A1401/A140104/14054338/",
        "Dishes": 3.05,
        "Service": 3.05,
        "Atmosphere": 3.05,
        "Cost": 3.05,
        "Drinks": 3.05,
        "Latitude": 35.4440522,
        "Longitude": 139.6326148
    },
    {
        "Name": "Uogashiden",
        "Address": "2-3-4 Sakaecho Odawara Kanagawa",
        "Url": "http://tabelog.com/en/kanagawa/A1409/A140901/14013829/",
        "Dishes": 2.98,
        "Service": 2.97,
        "Atmosphere": 2.97,
        "Cost": 2.97,
        "Drinks": 2.98,
        "Latitude": 35.2564733,
        "Longitude": 139.1568594
    },
    {
        "Name": "Sakurasuisan",
        "Address": "2-1 Ekimae Honcho Kawasaki-ku Kawasaki Kanagawa",
        "Url": "http://tabelog.com/en/kanagawa/A1405/A140501/14004499/",
        "Dishes": 3,
        "Service": 3,
        "Atmosphere": 3,
        "Cost": 3.01,
        "Drinks": 3,
        "Latitude": 35.5295726,
        "Longitude": 139.6986515
    },
    {
        "Name": "Odawarabaru",
        "Address": "1-2-8 Sakaecho Odawara Kanagawa",
        "Url": "http://tabelog.com/en/kanagawa/A1409/A140901/14052901/",
        "Dishes": 3.18,
        "Service": 3.14,
        "Atmosphere": 3.27,
        "Cost": 3.13,
        "Drinks": 3.1,
        "Latitude": 35.2551429,
        "Longitude": 139.1570178
    },
    {
        "Name": "Yakinikukingu",
        "Address": "1-3-43 Nishisakawa Odawara Kanagawa",
        "Url": "http://tabelog.com/en/kanagawa/A1409/A140901/14042317/",
        "Dishes": 3.02,
        "Service": 3.03,
        "Atmosphere": 3.01,
        "Cost": 3.03,
        "Drinks": 3,
        "Latitude": 35.2649924,
        "Longitude": 139.1830447
    },
    {
        "Name": "Shouya",
        "Address": "16-1 Totsukacho Totsuka-ku Yokohama Kanagawa",
        "Url": "http://tabelog.com/en/kanagawa/A1401/A140305/14009379/",
        "Dishes": 3.04,
        "Service": 3.02,
        "Atmosphere": 3.01,
        "Cost": 3.03,
        "Drinks": 3,
        "Latitude": 35.4015872,
        "Longitude": 139.5332269
    },
    {
        "Name": "Furesshunesubaga",
        "Address": "1-4-1 Chuo Ebina Kanagawa",
        "Url": "http://tabelog.com/en/kanagawa/A1408/A140801/14029223/",
        "Dishes": 3.04,
        "Service": 3,
        "Atmosphere": 3,
        "Cost": 3.01,
        "Drinks": 3.03,
        "Latitude": 35.4519951,
        "Longitude": 139.3935612
    },
    {
        "Name": "NIJYU-MARU",
        "Address": "1-1-3 Mizonokuchi Takatsu-ku Kawasaki Kanagawa",
        "Url": "http://tabelog.com/en/kanagawa/A1405/A140505/14013662/",
        "Dishes": 3,
        "Service": 3,
        "Atmosphere": 3,
        "Cost": 3.01,
        "Drinks": 3,
        "Latitude": 35.5988984,
        "Longitude": 139.6116289
    },
    {
        "Name": "Furenchina",
        "Address": "1-10 Kinkocho Kanagawa-ku Yokohama Kanagawa",
        "Url": "http://tabelog.com/en/kanagawa/A1401/A140101/14053884/",
        "Dishes": 3.07,
        "Service": 3.06,
        "Atmosphere": 3.11,
        "Cost": 3.08,
        "Drinks": 3.06,
        "Latitude": 35.4665051,
        "Longitude": 139.6266506
    },
    {
        "Name": "Cafe \u0026 Kitchen 333",
        "Address": "2-28 Bentendori Naka-ku Yokohama Kanagawa",
        "Url": "http://tabelog.com/en/kanagawa/A1401/A140104/14039032/",
        "Dishes": 3.39,
        "Service": 3.47,
        "Atmosphere": 3.29,
        "Cost": 3.33,
        "Drinks": 3.2,
        "Latitude": 35.4476518,
        "Longitude": 139.6391392
    },
    {
        "Name": "Tamadon",
        "Address": "1-10-13 Miyamaedaira Miyamae-ku Kawasaki Kanagawa",
        "Url": "http://tabelog.com/en/kanagawa/A1405/A140507/14040902/",
        "Dishes": 3.1,
        "Service": 3.15,
        "Atmosphere": 3.02,
        "Cost": 3.16,
        "Drinks": 3.1,
        "Latitude": 35.5847505,
        "Longitude": 139.5823942
    },
    {
        "Name": "Izakayakamadoka",
        "Address": "1-17-1 Manpukuji Asao-ku Kawasaki Kanagawa",
        "Url": "http://tabelog.com/en/kanagawa/A1405/A140508/14014393/",
        "Dishes": 3,
        "Service": 3,
        "Atmosphere": 3,
        "Cost": 3,
        "Drinks": 3,
        "Latitude": 35.604455,
        "Longitude": 139.5075771
    },
    {
        "Name": "Rakkyoandosuta",
        "Address": "1-2-9 Tsunashimanishi Kohoku-ku Yokohama Kanagawa",
        "Url": "http://tabelog.com/en/kanagawa/A1401/A140204/14009431/",
        "Dishes": 3.75,
        "Service": 3.54,
        "Atmosphere": 3.53,
        "Cost": 3.52,
        "Drinks": 3.12,
        "Latitude": 35.5379502,
        "Longitude": 139.6354986
    },
    {
        "Name": "Saizeriya",
        "Address": "1-36 Hinodecho Naka-ku Yokohama Kanagawa",
        "Url": "http://tabelog.com/en/kanagawa/A1401/A140102/14055177/",
        "Dishes": 3,
        "Service": 3,
        "Atmosphere": 3,
        "Cost": 3.02,
        "Drinks": 3,
        "Latitude": 35.4450021,
        "Longitude": 139.6266763
    },
    {
        "Name": "Tetsunoyon",
        "Address": "1-10-13 Miyamaedaira Miyamae-ku Kawasaki Kanagawa",
        "Url": "http://tabelog.com/en/kanagawa/A1405/A140507/14040901/",
        "Dishes": 3.06,
        "Service": 3,
        "Atmosphere": 3.23,
        "Cost": 3.52,
        "Drinks": 3.09,
        "Latitude": 35.5847505,
        "Longitude": 139.5823942
    },
    {
        "Name": "Ekohiiki",
        "Address": "2-1-16 Chuo Ebina Kanagawa",
        "Url": "http://tabelog.com/en/kanagawa/A1408/A140801/14037573/",
        "Dishes": 3,
        "Service": 3,
        "Atmosphere": 3,
        "Cost": 3.02,
        "Drinks": 3,
        "Latitude": 35.4498843,
        "Longitude": 139.3922668
    },
    {
        "Name": "Bejiteburu",
        "Address": "1-1-2 Kitasaiwai Nishi-ku Yokohama Kanagawa",
        "Url": "http://tabelog.com/en/kanagawa/A1401/A140101/14012812/",
        "Dishes": 3.5,
        "Service": 3.43,
        "Atmosphere": 3.55,
        "Cost": 3.53,
        "Drinks": 3.36,
        "Latitude": 35.46764940000001,
        "Longitude": 139.6222259
    },
    {
        "Name": "Guddoitodoruche",
        "Address": "1-1 Motomachi Chigasaki Kanagawa",
        "Url": "http://tabelog.com/en/kanagawa/A1404/A140406/14006613/",
        "Dishes": 3.03,
        "Service": 3,
        "Atmosphere": 3,
        "Cost": 3,
        "Drinks": 3.02,
        "Latitude": 35.3304767,
        "Longitude": 139.4060859
    },
    {
        "Name": "Furansuryourifontemburo",
        "Address": "1297 Ninotaira Hakone Ashigarashimo-gun Kanagawa",
        "Url": "http://tabelog.com/en/kanagawa/A1410/A141001/14032610/",
        "Dishes": 3.13,
        "Service": 3.15,
        "Atmosphere": 3.2,
        "Cost": 3.2,
        "Drinks": 3,
        "Latitude": 35.2416651,
        "Longitude": 139.0432767
    },
    {
        "Name": "Fukurokuju",
        "Address": "1-2-9 Hakusan Midori-ku Yokohama Kanagawa",
        "Url": "http://tabelog.com/en/kanagawa/A1401/A140207/14001564/",
        "Dishes": 3.08,
        "Service": 3.28,
        "Atmosphere": 2.95,
        "Cost": 3.38,
        "Drinks": 3.17,
        "Latitude": 35.5094769,
        "Longitude": 139.562337
    },
    {
        "Name": "bisutoroanju",
        "Address": "1-6-3 Kamiasao Asao-ku Kawasaki Kanagawa",
        "Url": "http://tabelog.com/en/kanagawa/A1405/A140508/14006772/",
        "Dishes": 3.02,
        "Service": 3,
        "Atmosphere": 3.07,
        "Cost": 3.02,
        "Drinks": 3.03,
        "Latitude": 35.6019444,
        "Longitude": 139.5097021
    },
    {
        "Name": "Albergo bamboo",
        "Address": "984-4 Sengokuhara Hakone Ashigarashimo-gun Kanagawa",
        "Url": "http://tabelog.com/en/kanagawa/A1410/A141001/14001046/",
        "Dishes": 3.36,
        "Service": 3.25,
        "Atmosphere": 3.45,
        "Cost": 3.18,
        "Drinks": 3.14,
        "Latitude": 35.2696857,
        "Longitude": 139.0151855
    },
    {
        "Name": "Rapauza",
        "Address": "2-1-1 Aobadai Aoba-ku Yokohama Kanagawa",
        "Url": "http://tabelog.com/en/kanagawa/A1401/A140202/14039617/",
        "Dishes": 3,
        "Service": 3,
        "Atmosphere": 3,
        "Cost": 3.01,
        "Drinks": 3,
        "Latitude": 35.5421329,
        "Longitude": 139.5160153
    },
    {
        "Name": "Wakatake",
        "Address": "7-7 Ekimae Honcho Kawasaki-ku Kawasaki Kanagawa",
        "Url": "http://tabelog.com/en/kanagawa/A1405/A140501/14010868/",
        "Dishes": 3.02,
        "Service": 2.99,
        "Atmosphere": 2.98,
        "Cost": 2.99,
        "Drinks": 2.99,
        "Latitude": 35.5305614,
        "Longitude": 139.6996042
    },
    {
        "Name": "Kantonhanten",
        "Address": "144 Yamashitacho Naka-ku Yokohama Kanagawa",
        "Url": "http://tabelog.com/en/kanagawa/A1401/A140105/14001185/",
        "Dishes": 3.24,
        "Service": 3.18,
        "Atmosphere": 3.24,
        "Cost": 3.07,
        "Drinks": 3.09,
        "Latitude": 35.4430134,
        "Longitude": 139.6446946
    },
    {
        "Name": "Shaoweiyammoukohinabe",
        "Address": "2-17-8 Minamisaiwai Nishi-ku Yokohama Kanagawa",
        "Url": "http://tabelog.com/en/kanagawa/A1401/A140101/14043891/",
        "Dishes": 3.05,
        "Service": 3.01,
        "Atmosphere": 3.08,
        "Cost": 3.13,
        "Drinks": 3,
        "Latitude": 35.4637304,
        "Longitude": 139.6160934
    },
    {
        "Name": "BEER NEXT",
        "Address": "1-1-2 Shinko Naka-ku Yokohama Kanagawa",
        "Url": "http://tabelog.com/en/kanagawa/A1401/A140104/14000685/",
        "Dishes": 3.4,
        "Service": 3.32,
        "Atmosphere": 3.54,
        "Cost": 3.22,
        "Drinks": 3.52,
        "Latitude": 35.4526178,
        "Longitude": 139.6428859
    },
    {
        "Name": "Kagurauta",
        "Address": "2-6-2 Minamisaiwai Nishi-ku Yokohama Kanagawa",
        "Url": "http://tabelog.com/en/kanagawa/A1401/A140101/14032424/",
        "Dishes": 3,
        "Service": 3.2,
        "Atmosphere": 3.02,
        "Cost": 3,
        "Drinks": 3,
        "Latitude": 35.463711,
        "Longitude": 139.6184653
    },
    {
        "Name": "Yakitombu",
        "Address": "Noborito Tama-ku Kawasaki Kanagawa",
        "Url": "http://tabelog.com/en/kanagawa/A1405/A140506/14058222/",
        "Dishes": 3.26,
        "Service": 3.14,
        "Atmosphere": 3.12,
        "Cost": 3.2,
        "Drinks": 3.12,
        "Latitude": 35.6205085,
        "Longitude": 139.5687792
    },
    {
        "Name": "Shabushabuonyasai",
        "Address": "1-3-3 Kugenumaishigami Fujisawa Kanagawa",
        "Url": "http://tabelog.com/en/kanagawa/A1404/A140404/14005305/",
        "Dishes": 3,
        "Service": 3.01,
        "Atmosphere": 3,
        "Cost": 3.01,
        "Drinks": 3,
        "Latitude": 35.3370123,
        "Longitude": 139.4885694
    },
    {
        "Name": "COCO'S",
        "Address": "3-5-29 Koshigoe Kamakura Kanagawa",
        "Url": "http://tabelog.com/en/kanagawa/A1404/A140403/14039447/",
        "Dishes": 3,
        "Service": 3.03,
        "Atmosphere": 3.03,
        "Cost": 3.07,
        "Drinks": 3.04,
        "Latitude": 35.3086093,
        "Longitude": 139.4905609
    },
    {
        "Name": "Kamakurakomachidoori",
        "Address": "1-1-67 Sakuragicho Naka-ku Yokohama Kanagawa",
        "Url": "http://tabelog.com/en/kanagawa/A1401/A140102/14043247/",
        "Dishes": 3,
        "Service": 2.99,
        "Atmosphere": 3.18,
        "Cost": 3,
        "Drinks": 3,
        "Latitude": 35.4497142,
        "Longitude": 139.6310632
    },
    {
        "Name": "Kyoumachiya",
        "Address": "1-20-1 Kamiasao Asao-ku Kawasaki Kanagawa",
        "Url": "http://tabelog.com/en/kanagawa/A1405/A140508/14006443/",
        "Dishes": 3.29,
        "Service": 3.2,
        "Atmosphere": 3.3,
        "Cost": 3.24,
        "Drinks": 3.14,
        "Latitude": 35.6037968,
        "Longitude": 139.5080938
    },
    {
        "Name": "Nihonshubaruumami",
        "Address": "2-9-22 Tsuruyacho Kanagawa-ku Yokohama Kanagawa",
        "Url": "http://tabelog.com/en/kanagawa/A1401/A140101/14051628/",
        "Dishes": 3.12,
        "Service": 3.12,
        "Atmosphere": 3.09,
        "Cost": 3.01,
        "Drinks": 3.1,
        "Latitude": 35.4697575,
        "Longitude": 139.6213898
    },
    {
        "Name": "Kinkourou",
        "Address": "200 Yamashitacho Naka-ku Yokohama Kanagawa",
        "Url": "http://tabelog.com/en/kanagawa/A1401/A140105/14015120/",
        "Dishes": 3.52,
        "Service": 3.28,
        "Atmosphere": 3.53,
        "Cost": 3.51,
        "Drinks": 3.24,
        "Latitude": 35.4431273,
        "Longitude": 139.6434308
    },
    {
        "Name": "Mikuni Yokohama",
        "Address": "2-19-12 Takashima Nishi-ku Yokohama Kanagawa",
        "Url": "http://tabelog.com/en/kanagawa/A1401/A140101/14012634/",
        "Dishes": 3.55,
        "Service": 3.55,
        "Atmosphere": 3.58,
        "Cost": 3.55,
        "Drinks": 3.44,
        "Latitude": 35.4647358,
        "Longitude": 139.6245619
    }
]