[
    {
        "Name": "Onikunokuni",
        "Address": "Takashima Nishi-ku Yokohama Kanagawa",
        "Url": "http://tabelog.com/en/kanagawa/A1401/A140101/14058676/",
        "Dishes": 3.18,
        "Service": 3,
        "Atmosphere": 3.12,
        "Cost": 3.18,
        "Drinks": 3.18,
        "Latitude": 35.4622889,
        "Longitude": 139.6222899
    },
    {
        "Name": "Saizeriya",
        "Address": "1-1-3 Sagamihara Chuo-ku Sagamihara Kanagawa",
        "Url": "http://tabelog.com/en/kanagawa/A1407/A140701/14039132/",
        "Dishes": 3.02,
        "Service": 3.01,
        "Atmosphere": 3.01,
        "Cost": 3.05,
        "Drinks": 3.01,
        "Latitude": 35.5811327,
        "Longitude": 139.3709098
    },
    {
        "Name": "YOKOHAMA ASIAN DINING \u0026 BAR",
        "Address": "3-43-4 Wakabacho Naka-ku Yokohama Kanagawa",
        "Url": "http://tabelog.com/en/kanagawa/A1401/A140102/14052259/",
        "Dishes": 3.17,
        "Service": 3.23,
        "Atmosphere": 3.22,
        "Cost": 3.22,
        "Drinks": 3.06,
        "Latitude": 35.4412748,
        "Longitude": 139.6275875
    },
    {
        "Name": "Cafe La Boheme",
        "Address": "61-1 Yamashitacho Naka-ku Yokohama Kanagawa",
        "Url": "http://tabelog.com/en/kanagawa/A1401/A140105/14010439/",
        "Dishes": 3.06,
        "Service": 3.06,
        "Atmosphere": 3.09,
        "Cost": 3.06,
        "Drinks": 3,
        "Latitude": 35.4438856,
        "Longitude": 139.6488554
    },
    {
        "Name": "Sazanka",
        "Address": "2-14-1 Minamisaiwai Nishi-ku Yokohama Kanagawa",
        "Url": "http://tabelog.com/en/kanagawa/A1401/A140101/14049884/",
        "Dishes": 3,
        "Service": 3,
        "Atmosphere": 3,
        "Cost": 3,
        "Drinks": 3,
        "Latitude": 35.4640304,
        "Longitude": 139.6177293
    },
    {
        "Name": "Sammaruku",
        "Address": "1-6-1 Kamiookanishi Konan-ku Yokohama Kanagawa",
        "Url": "http://tabelog.com/en/kanagawa/A1401/A140307/14041549/",
        "Dishes": 3,
        "Service": 3.01,
        "Atmosphere": 3,
        "Cost": 2.99,
        "Drinks": 3,
        "Latitude": 35.4072739,
        "Longitude": 139.5961112
    },
    {
        "Name": "Watami",
        "Address": "4-2-1 Kamikodanaka Nakahara-ku Kawasaki Kanagawa",
        "Url": "http://tabelog.com/en/kanagawa/A1405/A140504/14013248/",
        "Dishes": 3,
        "Service": 3,
        "Atmosphere": 3,
        "Cost": 3.01,
        "Drinks": 3.01,
        "Latitude": 35.5813758,
        "Longitude": 139.6409824
    },
    {
        "Name": "Kabune",
        "Address": "16-1 Totsukacho Totsuka-ku Yokohama Kanagawa",
        "Url": "http://tabelog.com/en/kanagawa/A1401/A140305/14035503/",
        "Dishes": 3.02,
        "Service": 3,
        "Atmosphere": 3.08,
        "Cost": 3.02,
        "Drinks": 3,
        "Latitude": 35.4015872,
        "Longitude": 139.5332269
    },
    {
        "Name": "Fukumanen",
        "Address": "200 Yamashitacho Naka-ku Yokohama Kanagawa",
        "Url": "http://tabelog.com/en/kanagawa/A1401/A140105/14000504/",
        "Dishes": 3.43,
        "Service": 3.07,
        "Atmosphere": 3.15,
        "Cost": 3.33,
        "Drinks": 3.11,
        "Latitude": 35.4431273,
        "Longitude": 139.6434308
    },
    {
        "Name": "Uotami",
        "Address": "4-14-25 Chuorinkan Yamato Kanagawa",
        "Url": "http://tabelog.com/en/kanagawa/A1407/A140702/14013159/",
        "Dishes": 3,
        "Service": 3,
        "Atmosphere": 3,
        "Cost": 3,
        "Drinks": 3,
        "Latitude": 35.5080078,
        "Longitude": 139.4455886
    },
    {
        "Name": "Furesshunesubaga",
        "Address": "2-5-25 Fujigaoka Aoba-ku Yokohama Kanagawa",
        "Url": "http://tabelog.com/en/kanagawa/A1401/A140202/14032179/",
        "Dishes": 3.02,
        "Service": 3.01,
        "Atmosphere": 3.02,
        "Cost": 3.01,
        "Drinks": 3.02,
        "Latitude": 35.5438919,
        "Longitude": 139.5273135
    },
    {
        "Name": "Issa",
        "Address": "2-1-2 Minamifujisawa Fujisawa Kanagawa",
        "Url": "http://tabelog.com/en/kanagawa/A1404/A140404/14007677/",
        "Dishes": 3,
        "Service": 3.02,
        "Atmosphere": 3.04,
        "Cost": 3,
        "Drinks": 3,
        "Latitude": 35.3384815,
        "Longitude": 139.4888944
    },
    {
        "Name": "Fikodhindhia",
        "Address": "1-24-16 Asahicho Atsugi Kanagawa",
        "Url": "http://tabelog.com/en/kanagawa/A1408/A140802/14032008/",
        "Dishes": 3.59,
        "Service": 3.54,
        "Atmosphere": 3.56,
        "Cost": 3.54,
        "Drinks": 3.51,
        "Latitude": 35.4379825,
        "Longitude": 139.3641915
    },
    {
        "Name": "Fukueimon",
        "Address": "1 Nisshincho Kawasaki-ku Kawasaki Kanagawa",
        "Url": "http://tabelog.com/en/kanagawa/A1405/A140501/14008534/",
        "Dishes": 3.29,
        "Service": 3.09,
        "Atmosphere": 3.04,
        "Cost": 3.39,
        "Drinks": 3.11,
        "Latitude": 35.5287061,
        "Longitude": 139.6954574
    },
    {
        "Name": "Yakinikukingu",
        "Address": "5-29-25 Hino Konan-ku Yokohama Kanagawa",
        "Url": "http://tabelog.com/en/kanagawa/A1401/A140307/14040124/",
        "Dishes": 3.02,
        "Service": 3.07,
        "Atmosphere": 3.07,
        "Cost": 3.06,
        "Drinks": 3.06,
        "Latitude": 35.3926334,
        "Longitude": 139.5831369
    },
    {
        "Name": "Yamauchinoujou",
        "Address": "2-15-4 Utsukushigaoka Aoba-ku Yokohama Kanagawa",
        "Url": "http://tabelog.com/en/kanagawa/A1401/A140201/14046138/",
        "Dishes": 3,
        "Service": 3,
        "Atmosphere": 3,
        "Cost": 3,
        "Drinks": 3,
        "Latitude": 35.5793486,
        "Longitude": 139.5584772
    },
    {
        "Name": "Hakonehairandohoterurafore",
        "Address": "神奈川県足柄下郡箱根町仙石原品の木940",
        "Url": "http://tabelog.com/en/kanagawa/A1410/A141001/14004807/",
        "Dishes": 3.55,
        "Service": 3.55,
        "Atmosphere": 3.54,
        "Cost": 3.35,
        "Drinks": 3.43,
        "Latitude": 35.26654449999999,
        "Longitude": 139.015841
    },
    {
        "Name": "Arijou",
        "Address": "1-11 Nisshincho Kawasaki-ku Kawasaki Kanagawa",
        "Url": "http://tabelog.com/en/kanagawa/A1405/A140501/14042485/",
        "Dishes": 3.02,
        "Service": 3.06,
        "Atmosphere": 3.01,
        "Cost": 3.22,
        "Drinks": 3,
        "Latitude": 35.5294171,
        "Longitude": 139.6967267
    },
    {
        "Name": "Erisu",
        "Address": "146 Yamashitacho Naka-ku Yokohama Kanagawa",
        "Url": "http://tabelog.com/en/kanagawa/A1401/A140105/14040559/",
        "Dishes": 3.02,
        "Service": 3.03,
        "Atmosphere": 3,
        "Cost": 3.14,
        "Drinks": 3,
        "Latitude": 35.4429218,
        "Longitude": 139.6453862
    },
    {
        "Name": "Arijou",
        "Address": "1-25-1 Nakagawachuo Tsuzuki-ku Yokohama Kanagawa",
        "Url": "http://tabelog.com/en/kanagawa/A1401/A140203/14051192/",
        "Dishes": 3.05,
        "Service": 3.04,
        "Atmosphere": 3.08,
        "Cost": 3.11,
        "Drinks": 3,
        "Latitude": 35.5516442,
        "Longitude": 139.579457
    },
    {
        "Name": "Akamomohanten",
        "Address": "2-9 Higashidacho Kawasaki-ku Kawasaki Kanagawa",
        "Url": "http://tabelog.com/en/kanagawa/A1405/A140501/14005044/",
        "Dishes": 3.2,
        "Service": 3,
        "Atmosphere": 2.99,
        "Cost": 3.06,
        "Drinks": 3,
        "Latitude": 35.5279506,
        "Longitude": 139.7018374
    },
    {
        "Name": "Primodine",
        "Address": "555 Fujisawa Fujisawa Kanagawa",
        "Url": "http://tabelog.com/en/kanagawa/A1404/A140404/14008675/",
        "Dishes": 3.02,
        "Service": 3,
        "Atmosphere": 3,
        "Cost": 3.03,
        "Drinks": 2.99,
        "Latitude": 35.3399174,
        "Longitude": 139.4869807
    },
    {
        "Name": "Kototoi",
        "Address": "2-17-1 Minamisaiwai Nishi-ku Yokohama Kanagawa",
        "Url": "http://tabelog.com/en/kanagawa/A1401/A140102/14049241/",
        "Dishes": 3,
        "Service": 3,
        "Atmosphere": 3,
        "Cost": 3,
        "Drinks": 3,
        "Latitude": 35.4640692,
        "Longitude": 139.6166267
    },
    {
        "Name": "Hiratsukaizawa",
        "Address": "15-4 Beniyacho Hiratsuka Kanagawa",
        "Url": "http://tabelog.com/en/kanagawa/A1404/A140407/14035245/",
        "Dishes": 3.08,
        "Service": 3.01,
        "Atmosphere": 3,
        "Cost": 3,
        "Drinks": 3,
        "Latitude": 35.3282167,
        "Longitude": 139.3466796
    },
    {
        "Name": "Royal Parasol",
        "Address": "4233-2 Akiya Yokosuka Kanagawa",
        "Url": "http://tabelog.com/en/kanagawa/A1406/A140601/14030478/",
        "Dishes": 3.25,
        "Service": 3.18,
        "Atmosphere": 3.21,
        "Cost": 3.2,
        "Drinks": 3.05,
        "Latitude": 35.2452134,
        "Longitude": 139.5946093
    },
    {
        "Name": "Sushizammai",
        "Address": "165-4 Yamashitacho Naka-ku Yokohama Kanagawa",
        "Url": "http://tabelog.com/en/kanagawa/A1401/A140105/14039548/",
        "Dishes": 3.07,
        "Service": 3,
        "Atmosphere": 3,
        "Cost": 3,
        "Drinks": 3,
        "Latitude": 35.4436911,
        "Longitude": 139.6470778
    },
    {
        "Name": "Kyoutokimurayahonten",
        "Address": "1-3-7 Isago Kawasaki-ku Kawasaki Kanagawa",
        "Url": "http://tabelog.com/en/kanagawa/A1405/A140501/14044726/",
        "Dishes": 3.01,
        "Service": 3,
        "Atmosphere": 3,
        "Cost": 3,
        "Drinks": 3,
        "Latitude": 35.5320001,
        "Longitude": 139.7005735
    },
    {
        "Name": "Kanazawamaimonsushi",
        "Address": "2-19-3 Utsukushigaoka Aoba-ku Yokohama Kanagawa",
        "Url": "http://tabelog.com/en/kanagawa/A1401/A140201/14001109/",
        "Dishes": 3.55,
        "Service": 3.32,
        "Atmosphere": 3.51,
        "Cost": 3.05,
        "Drinks": 2.99,
        "Latitude": 35.5810289,
        "Longitude": 139.5587965
    },
    {
        "Name": "Hamazushi",
        "Address": "4-31-7 Kizuki Nakahara-ku Kawasaki Kanagawa",
        "Url": "http://tabelog.com/en/kanagawa/A1405/A140504/14050310/",
        "Dishes": 3.02,
        "Service": 3,
        "Atmosphere": 3,
        "Cost": 3.02,
        "Drinks": 3,
        "Latitude": 35.5592325,
        "Longitude": 139.6520937
    },
    {
        "Name": "Biosuteriabishibashi",
        "Address": "3丁目51-8 Miyamotocho Minami-ku Yokohama Kanagawa",
        "Url": "http://tabelog.com/en/kanagawa/A1401/A140306/14011292/",
        "Dishes": 3.36,
        "Service": 3.15,
        "Atmosphere": 3.13,
        "Cost": 3.18,
        "Drinks": 3.27,
        "Latitude": 35.4300373,
        "Longitude": 139.6095506
    },
    {
        "Name": "TIME",
        "Address": "2-79 Nogecho Naka-ku Yokohama Kanagawa",
        "Url": "http://tabelog.com/en/kanagawa/A1401/A140102/14035701/",
        "Dishes": 3.19,
        "Service": 3.12,
        "Atmosphere": 3.18,
        "Cost": 3.24,
        "Drinks": 3.04,
        "Latitude": 35.4473018,
        "Longitude": 139.6293399
    },
    {
        "Name": "Igaiga",
        "Address": "1-4-7 Nakagawachuo Tsuzuki-ku Yokohama Kanagawa",
        "Url": "http://tabelog.com/en/kanagawa/A1401/A140203/14032830/",
        "Dishes": 3.03,
        "Service": 3,
        "Atmosphere": 3,
        "Cost": 3.04,
        "Drinks": 2.99,
        "Latitude": 35.5525996,
        "Longitude": 139.5761212
    },
    {
        "Name": "Hamachou",
        "Address": "4-49-14 Kamariyahigashi Kanazawa-ku Yokohama Kanagawa",
        "Url": "http://tabelog.com/en/kanagawa/A1401/A140310/14000942/",
        "Dishes": 3.09,
        "Service": 3.03,
        "Atmosphere": 3.04,
        "Cost": 3,
        "Drinks": 3.03,
        "Latitude": 35.3461484,
        "Longitude": 139.6097151
    },
    {
        "Name": "Kimura",
        "Address": "1-6-21 Enoshima Fujisawa Kanagawa",
        "Url": "http://tabelog.com/en/kanagawa/A1404/A140403/14000192/",
        "Dishes": 3.38,
        "Service": 3.11,
        "Atmosphere": 3.12,
        "Cost": 3.14,
        "Drinks": 3,
        "Latitude": 35.3001708,
        "Longitude": 139.4820311
    },
    {
        "Name": "Kinryuuhanten",
        "Address": "187-8 Yamashitacho Naka-ku Yokohama Kanagawa",
        "Url": "http://tabelog.com/en/kanagawa/A1401/A140105/14010464/",
        "Dishes": 3.06,
        "Service": 2.99,
        "Atmosphere": 3.01,
        "Cost": 3.12,
        "Drinks": 3,
        "Latitude": 35.4427635,
        "Longitude": 139.64765
    },
    {
        "Name": "Pittsuriabaruketta",
        "Address": "1-13-17 Miyagawacho Naka-ku Yokohama Kanagawa",
        "Url": "http://tabelog.com/en/kanagawa/A1401/A140102/14053135/",
        "Dishes": 3.53,
        "Service": 3.56,
        "Atmosphere": 3.53,
        "Cost": 3.53,
        "Drinks": 3.52,
        "Latitude": 35.4463686,
        "Longitude": 139.6294372
    },
    {
        "Name": "Wataminchi",
        "Address": "2-2-5 Shonandai Fujisawa Kanagawa",
        "Url": "http://tabelog.com/en/kanagawa/A1404/A140405/14014505/",
        "Dishes": 3.01,
        "Service": 3,
        "Atmosphere": 3.01,
        "Cost": 3.01,
        "Drinks": 3,
        "Latitude": 35.3966181,
        "Longitude": 139.465957
    },
    {
        "Name": "Hoahoa",
        "Address": "1-4-25 Hiyoshihoncho Kohoku-ku Yokohama Kanagawa",
        "Url": "http://tabelog.com/en/kanagawa/A1401/A140204/14006626/",
        "Dishes": 3.27,
        "Service": 3.22,
        "Atmosphere": 3.31,
        "Cost": 3.09,
        "Drinks": 3.03,
        "Latitude": 35.5542361,
        "Longitude": 139.6452889
    },
    {
        "Name": "bisutororyuban",
        "Address": "1-10 Kinkocho Kanagawa-ku Yokohama Kanagawa",
        "Url": "http://tabelog.com/en/kanagawa/A1401/A140101/14012831/",
        "Dishes": 3.22,
        "Service": 3.12,
        "Atmosphere": 3.51,
        "Cost": 3.47,
        "Drinks": 3.26,
        "Latitude": 35.4665051,
        "Longitude": 139.6266506
    },
    {
        "Name": "Shokusaiwagyuushigekichi",
        "Address": "2-1-3 Fukaminishi Yamato Kanagawa",
        "Url": "http://tabelog.com/en/kanagawa/A1407/A140702/14003476/",
        "Dishes": 3.52,
        "Service": 3.5,
        "Atmosphere": 3.38,
        "Cost": 3.43,
        "Drinks": 3.11,
        "Latitude": 35.4751933,
        "Longitude": 139.4622808
    },
    {
        "Name": "Ajinomingei",
        "Address": "6-5-2 Suge Tama-ku Kawasaki Kanagawa",
        "Url": "http://tabelog.com/en/kanagawa/A1405/A140506/14029126/",
        "Dishes": 3.06,
        "Service": 3.06,
        "Atmosphere": 3.05,
        "Cost": 3.03,
        "Drinks": 3.02,
        "Latitude": 35.6382498,
        "Longitude": 139.5239323
    },
    {
        "Name": "Maruza",
        "Address": "1-14-3 Kamiookanishi Konan-ku Yokohama Kanagawa",
        "Url": "http://tabelog.com/en/kanagawa/A1401/A140307/14001013/",
        "Dishes": 3.05,
        "Service": 3,
        "Atmosphere": 3.01,
        "Cost": 3,
        "Drinks": 3,
        "Latitude": 35.4101398,
        "Longitude": 139.5958578
    },
    {
        "Name": "Nambou",
        "Address": "神奈川県横浜市旭区鶴ヶ峰2-3-1",
        "Url": "http://tabelog.com/en/kanagawa/A1401/A140302/14012067/",
        "Dishes": 3.01,
        "Service": 3.01,
        "Atmosphere": 3.01,
        "Cost": 3,
        "Drinks": 3.01,
        "Latitude": 35.475278,
        "Longitude": 139.5464557
    },
    {
        "Name": "Keitokuchin",
        "Address": "138 Yamashitacho Naka-ku Yokohama Kanagawa",
        "Url": "http://tabelog.com/en/kanagawa/A1401/A140105/14031825/",
        "Dishes": 3.51,
        "Service": 3.17,
        "Atmosphere": 3.15,
        "Cost": 3.28,
        "Drinks": 3.13,
        "Latitude": 35.4425774,
        "Longitude": 139.6458973
    },
    {
        "Name": "Sushidaininguwatokousaitamahachi",
        "Address": "599 Kamonomiya Odawara Kanagawa",
        "Url": "http://tabelog.com/en/kanagawa/A1409/A140901/14008044/",
        "Dishes": 3.02,
        "Service": 3.02,
        "Atmosphere": 3.02,
        "Cost": 3.02,
        "Drinks": 3.02,
        "Latitude": 35.2812984,
        "Longitude": 139.1775054
    },
    {
        "Name": "The fish and oysters",
        "Address": "2-5-10 Takashima Nishi-ku Yokohama Kanagawa",
        "Url": "http://tabelog.com/en/kanagawa/A1401/A140102/14058004/",
        "Dishes": 3.05,
        "Service": 3.05,
        "Atmosphere": 3.05,
        "Cost": 3.05,
        "Drinks": 3.05,
        "Latitude": 35.46177790000001,
        "Longitude": 139.6226816
    },
    {
        "Name": "Kuraxtsu",
        "Address": "5-62 Sumiyoshicho Naka-ku Yokohama Kanagawa",
        "Url": "http://tabelog.com/en/kanagawa/A1401/A140104/14038081/",
        "Dishes": 3.05,
        "Service": 3.12,
        "Atmosphere": 3.13,
        "Cost": 3.14,
        "Drinks": 3.09,
        "Latitude": 35.4479129,
        "Longitude": 139.6352839
    },
    {
        "Name": "Doragombaru",
        "Address": "3-2-27 Hamatake Chigasaki Kanagawa",
        "Url": "http://tabelog.com/en/kanagawa/A1404/A140404/14049280/",
        "Dishes": 3.25,
        "Service": 3.25,
        "Atmosphere": 3.21,
        "Cost": 3.22,
        "Drinks": 3.21,
        "Latitude": 35.3358971,
        "Longitude": 139.4430256
    },
    {
        "Name": "Ryuukohanten",
        "Address": "216-5 Yamashitacho Naka-ku Yokohama Kanagawa",
        "Url": "http://tabelog.com/en/kanagawa/A1401/A140105/14007443/",
        "Dishes": 3,
        "Service": 3,
        "Atmosphere": 3,
        "Cost": 3.02,
        "Drinks": 3,
        "Latitude": 35.4425246,
        "Longitude": 139.6438364
    },
    {
        "Name": "Nadaihakonesoba",
        "Address": "8-19 Ekimae Honcho Kawasaki-ku Kawasaki Kanagawa",
        "Url": "http://tabelog.com/en/kanagawa/A1405/A140501/14021600/",
        "Dishes": 3.02,
        "Service": 2.99,
        "Atmosphere": 3,
        "Cost": 3.08,
        "Drinks": 3,
        "Latitude": 35.5314724,
        "Longitude": 139.7003541
    },
    {
        "Name": "Tsunashimahorumon",
        "Address": "2-13-9 Tsunashimanishi Kohoku-ku Yokohama Kanagawa",
        "Url": "http://tabelog.com/en/kanagawa/A1401/A140204/14053842/",
        "Dishes": 3.01,
        "Service": 3.02,
        "Atmosphere": 3.01,
        "Cost": 3,
        "Drinks": 3,
        "Latitude": 35.5361866,
        "Longitude": 139.6308157
    },
    {
        "Name": "Jakkupottominatomirai",
        "Address": "1-1-7 Sakuragicho Naka-ku Yokohama Kanagawa",
        "Url": "http://tabelog.com/en/kanagawa/A1401/A140102/14035281/",
        "Dishes": 3.3,
        "Service": 3.2,
        "Atmosphere": 3.44,
        "Cost": 3.14,
        "Drinks": 3.12,
        "Latitude": 35.4497142,
        "Longitude": 139.6310632
    },
    {
        "Name": "Kinohana",
        "Address": "1-22-13 Ofuna Kamakura Kanagawa",
        "Url": "http://tabelog.com/en/kanagawa/A1404/A140401/14030689/",
        "Dishes": 3.03,
        "Service": 3.06,
        "Atmosphere": 3.03,
        "Cost": 3.03,
        "Drinks": 3.03,
        "Latitude": 35.3522493,
        "Longitude": 139.5328241
    },
    {
        "Name": "Kuidonsumibitei",
        "Address": "1丁目13-3 Sugita Isogo-ku Yokohama Kanagawa",
        "Url": "http://tabelog.com/en/kanagawa/A1401/A140308/14032109/",
        "Dishes": 3.02,
        "Service": 3.01,
        "Atmosphere": 3.01,
        "Cost": 3.01,
        "Drinks": 3.01,
        "Latitude": 35.3839901,
        "Longitude": 139.616572
    },
    {
        "Name": "Tokufuku",
        "Address": "7 Ekimae Honcho Kawasaki-ku Kawasaki Kanagawa",
        "Url": "http://tabelog.com/en/kanagawa/A1405/A140501/14039838/",
        "Dishes": 3.51,
        "Service": 3.09,
        "Atmosphere": 3.07,
        "Cost": 2.91,
        "Drinks": 3.02,
        "Latitude": 35.5305614,
        "Longitude": 139.6996042
    },
    {
        "Name": "KEEL'S BAR HOUSE AOBADAI",
        "Address": "2-11-28 Aobadai Aoba-ku Yokohama Kanagawa",
        "Url": "http://tabelog.com/en/kanagawa/A1401/A140202/14035776/",
        "Dishes": 3.5,
        "Service": 3.51,
        "Atmosphere": 3.53,
        "Cost": 3.22,
        "Drinks": 3.53,
        "Latitude": 35.5461352,
        "Longitude": 139.5167345
    },
    {
        "Name": "Gurirudoeijingubifuyokohamaten",
        "Address": "2-15 Tsuruyacho Kanagawa-ku Yokohama Kanagawa",
        "Url": "http://tabelog.com/en/kanagawa/A1401/A140101/14052655/",
        "Dishes": 3.27,
        "Service": 3.16,
        "Atmosphere": 3.15,
        "Cost": 2.97,
        "Drinks": 3.15,
        "Latitude": 35.4679466,
        "Longitude": 139.6227842
    },
    {
        "Name": "La Pausa",
        "Address": "1-4-1 Chuo Ebina Kanagawa",
        "Url": "http://tabelog.com/en/kanagawa/A1408/A140801/14005085/",
        "Dishes": 3,
        "Service": 3,
        "Atmosphere": 3,
        "Cost": 3.03,
        "Drinks": 3,
        "Latitude": 35.4519951,
        "Longitude": 139.3935612
    },
    {
        "Name": "Kawagoeya",
        "Address": "1-6-19 Komachi Kamakura Kanagawa",
        "Url": "http://tabelog.com/en/kanagawa/A1404/A140402/14001836/",
        "Dishes": 2.99,
        "Service": 2.99,
        "Atmosphere": 2.98,
        "Cost": 2.97,
        "Drinks": 3,
        "Latitude": 35.3194949,
        "Longitude": 139.5511142
    },
    {
        "Name": "Sekkomon",
        "Address": "8 Ekimae Honcho Kawasaki-ku Kawasaki Kanagawa",
        "Url": "http://tabelog.com/en/kanagawa/A1405/A140501/14000758/",
        "Dishes": 3.09,
        "Service": 3.11,
        "Atmosphere": 3.44,
        "Cost": 3.14,
        "Drinks": 3.09,
        "Latitude": 35.5314724,
        "Longitude": 139.7003541
    },
    {
        "Name": "Aisen",
        "Address": "4-2-4 Kouzu Odawara Kanagawa",
        "Url": "http://tabelog.com/en/kanagawa/A1409/A140901/14012783/",
        "Dishes": 3.11,
        "Service": 3.07,
        "Atmosphere": 3.09,
        "Cost": 3.04,
        "Drinks": 3,
        "Latitude": 35.2804658,
        "Longitude": 139.2130345
    },
    {
        "Name": "Miyazakikennichinanshitsukadanoujou",
        "Address": "2-4-18 Isago Kawasaki-ku Kawasaki Kanagawa",
        "Url": "http://tabelog.com/en/kanagawa/A1405/A140501/14040853/",
        "Dishes": 3.06,
        "Service": 3.07,
        "Atmosphere": 3.04,
        "Cost": 3.03,
        "Drinks": 3.05,
        "Latitude": 35.5301614,
        "Longitude": 139.7005458
    },
    {
        "Name": "Taruzushi",
        "Address": "4-7-19 Honkugenuma Fujisawa Kanagawa",
        "Url": "http://tabelog.com/en/kanagawa/A1404/A140404/14001877/",
        "Dishes": 3.15,
        "Service": 3,
        "Atmosphere": 3.03,
        "Cost": 3.03,
        "Drinks": 3.06,
        "Latitude": 35.3319344,
        "Longitude": 139.4706488
    },
    {
        "Name": "Nihonshusurofudohakobune",
        "Address": "4-52 Tokiwacho Naka-ku Yokohama Kanagawa",
        "Url": "http://tabelog.com/en/kanagawa/A1401/A140104/14042729/",
        "Dishes": 3.13,
        "Service": 3.12,
        "Atmosphere": 3.16,
        "Cost": 3.1,
        "Drinks": 3.23,
        "Latitude": 35.4463769,
        "Longitude": 139.6358089
    },
    {
        "Name": "Hokkaidou",
        "Address": "1-1 Daikancho Hiratsuka Kanagawa",
        "Url": "http://tabelog.com/en/kanagawa/A1404/A140407/14006024/",
        "Dishes": 3.01,
        "Service": 2.97,
        "Atmosphere": 2.99,
        "Cost": 2.97,
        "Drinks": 3,
        "Latitude": 35.3274584,
        "Longitude": 139.3513654
    },
    {
        "Name": "Niaribaba",
        "Address": "1-2-1 Aioicho Naka-ku Yokohama Kanagawa",
        "Url": "http://tabelog.com/en/kanagawa/A1401/A140104/14003582/",
        "Dishes": 3.32,
        "Service": 3.17,
        "Atmosphere": 3.26,
        "Cost": 3.14,
        "Drinks": 3.15,
        "Latitude": 35.4458936,
        "Longitude": 139.6398448
    },
    {
        "Name": "Porupo",
        "Address": "1-8-33 Katasekaigan Fujisawa Kanagawa",
        "Url": "http://tabelog.com/en/kanagawa/A1404/A140403/14053632/",
        "Dishes": 3.24,
        "Service": 3.11,
        "Atmosphere": 3.11,
        "Cost": 3.11,
        "Drinks": 3,
        "Latitude": 35.3099424,
        "Longitude": 139.4867279
    },
    {
        "Name": "Shiruichi",
        "Address": "2-13-11 Tsuruyacho Kanagawa-ku Yokohama Kanagawa",
        "Url": "http://tabelog.com/en/kanagawa/A1401/A140101/14013332/",
        "Dishes": 3.11,
        "Service": 2.99,
        "Atmosphere": 3.03,
        "Cost": 3,
        "Drinks": 3,
        "Latitude": 35.4685104,
        "Longitude": 139.6231064
    },
    {
        "Name": "Tenfu",
        "Address": "1-51 Nogecho Naka-ku Yokohama Kanagawa",
        "Url": "http://tabelog.com/en/kanagawa/A1401/A140102/14054907/",
        "Dishes": 3.17,
        "Service": 3.08,
        "Atmosphere": 3.12,
        "Cost": 3.16,
        "Drinks": 3.06,
        "Latitude": 35.4475518,
        "Longitude": 139.6299815
    },
    {
        "Name": "Yakinikumatsuri",
        "Address": "275-3 Kaminakazatocho Isogo-ku Yokohama Kanagawa",
        "Url": "http://tabelog.com/en/kanagawa/A1401/A140309/14008799/",
        "Dishes": 3,
        "Service": 3.07,
        "Atmosphere": 3.03,
        "Cost": 3.07,
        "Drinks": 3,
        "Latitude": 35.3748917,
        "Longitude": 139.6102816
    },
    {
        "Name": "Taishuusakabatamai",
        "Address": "Takatsu-ku Kawasaki Kanagawa",
        "Url": "http://tabelog.com/en/kanagawa/A1405/A140505/14039459/",
        "Dishes": 3.48,
        "Service": 3.38,
        "Atmosphere": 3.48,
        "Cost": 3.56,
        "Drinks": 3.51,
        "Latitude": 35.5994622,
        "Longitude": 139.6079376
    },
    {
        "Name": "FRESHNESS BURGER",
        "Address": "神奈川県横浜市都筑区茅ヶ崎中央6-1",
        "Url": "http://tabelog.com/en/kanagawa/A1401/A140203/14052778/",
        "Dishes": 3,
        "Service": 3,
        "Atmosphere": 3,
        "Cost": 3.02,
        "Drinks": 3,
        "Latitude": 35.5439813,
        "Longitude": 139.5744244
    },
    {
        "Name": "Ren",
        "Address": "3-1-18 Yamatohigashi Yamato Kanagawa",
        "Url": "http://tabelog.com/en/kanagawa/A1407/A140702/14013681/",
        "Dishes": 3.07,
        "Service": 3.02,
        "Atmosphere": 3,
        "Cost": 3.02,
        "Drinks": 3.04,
        "Latitude": 35.4712415,
        "Longitude": 139.4625921
    },
    {
        "Name": "MANOA Aloha Table",
        "Address": "1-1-7 Sakuragicho Naka-ku Yokohama Kanagawa",
        "Url": "http://tabelog.com/en/kanagawa/A1401/A140102/14035108/",
        "Dishes": 3.1,
        "Service": 3.09,
        "Atmosphere": 3.26,
        "Cost": 3,
        "Drinks": 3.06,
        "Latitude": 35.4497142,
        "Longitude": 139.6310632
    },
    {
        "Name": "Uroko",
        "Address": "1-10-1 Sakaecho Odawara Kanagawa",
        "Url": "http://tabelog.com/en/kanagawa/A1409/A140901/14055581/",
        "Dishes": 3.05,
        "Service": 3.04,
        "Atmosphere": 3.08,
        "Cost": 3.01,
        "Drinks": 3,
        "Latitude": 35.2529848,
        "Longitude": 139.1571151
    },
    {
        "Name": "kawarakafeandodainingupurasu",
        "Address": "2-16-6 Tsuruyacho Kanagawa-ku Yokohama Kanagawa",
        "Url": "http://tabelog.com/en/kanagawa/A1401/A140101/14041308/",
        "Dishes": 3.2,
        "Service": 3.19,
        "Atmosphere": 3.17,
        "Cost": 3.13,
        "Drinks": 3.09,
        "Latitude": 35.4683076,
        "Longitude": 139.6227619
    },
    {
        "Name": "Sumibitoriyakiyatamai",
        "Address": "2-3-7 Mizonokuchi Takatsu-ku Kawasaki Kanagawa",
        "Url": "http://tabelog.com/en/kanagawa/A1405/A140505/14004470/",
        "Dishes": 3.43,
        "Service": 3.04,
        "Atmosphere": 3.18,
        "Cost": 3.47,
        "Drinks": 3.13,
        "Latitude": 35.5995566,
        "Longitude": 139.6096652
    },
    {
        "Name": "Shabushabuonyasai",
        "Address": "5134 Oba Fujisawa Kanagawa",
        "Url": "http://tabelog.com/en/kanagawa/A1404/A140405/14005303/",
        "Dishes": 3,
        "Service": 3,
        "Atmosphere": 3,
        "Cost": 3,
        "Drinks": 3,
        "Latitude": 35.3591778,
        "Longitude": 139.4497809
    },
    {
        "Name": "Toukyouraisuwain",
        "Address": "1-6-3 Kamiasao Asao-ku Kawasaki Kanagawa",
        "Url": "http://tabelog.com/en/kanagawa/A1405/A140508/14054384/",
        "Dishes": 3.04,
        "Service": 3.09,
        "Atmosphere": 3.16,
        "Cost": 3.06,
        "Drinks": 3.12,
        "Latitude": 35.6019444,
        "Longitude": 139.5097021
    },
    {
        "Name": "Watami",
        "Address": "481-1 Kamikuratacho Totsuka-ku Yokohama Kanagawa",
        "Url": "http://tabelog.com/en/kanagawa/A1401/A140305/14051822/",
        "Dishes": 3.09,
        "Service": 3.03,
        "Atmosphere": 3.02,
        "Cost": 3.13,
        "Drinks": 3.07,
        "Latitude": 35.3993043,
        "Longitude": 139.536135
    },
    {
        "Name": "Numaduuogashizushi",
        "Address": "2-2-1 Minatomirai Nishi-ku Yokohama Kanagawa",
        "Url": "http://tabelog.com/en/kanagawa/A1401/A140103/14001747/",
        "Dishes": 3.21,
        "Service": 3.14,
        "Atmosphere": 3.13,
        "Cost": 3.1,
        "Drinks": 3.1,
        "Latitude": 35.4552397,
        "Longitude": 139.6310839
    },
    {
        "Name": "Yui",
        "Address": "3-10-8 Fujigaoka Fujisawa Kanagawa",
        "Url": "http://tabelog.com/en/kanagawa/A1404/A140404/14048171/",
        "Dishes": 3.54,
        "Service": 3.54,
        "Atmosphere": 3.51,
        "Cost": 3.56,
        "Drinks": 3,
        "Latitude": 35.3487581,
        "Longitude": 139.4954049
    },
    {
        "Name": "Kankanshouten",
        "Address": "6-23-8 Kamikodanaka Nakahara-ku Kawasaki Kanagawa",
        "Url": "http://tabelog.com/en/kanagawa/A1405/A140504/14005280/",
        "Dishes": 3.02,
        "Service": 3.02,
        "Atmosphere": 3.03,
        "Cost": 3.03,
        "Drinks": 3.03,
        "Latitude": 35.5808176,
        "Longitude": 139.6429211
    },
    {
        "Name": "Asshedorutakeuchi",
        "Address": "2-26-1 Aobadai Aoba-ku Yokohama Kanagawa",
        "Url": "http://tabelog.com/en/kanagawa/A1401/A140202/14037994/",
        "Dishes": 3.07,
        "Service": 3.07,
        "Atmosphere": 3.1,
        "Cost": 3.05,
        "Drinks": 3.05,
        "Latitude": 35.5477405,
        "Longitude": 139.5166649
    },
    {
        "Name": "Tenyamonya",
        "Address": "2-4-19 Isago Kawasaki-ku Kawasaki Kanagawa",
        "Url": "http://tabelog.com/en/kanagawa/A1405/A140501/14032035/",
        "Dishes": 3,
        "Service": 3,
        "Atmosphere": 3.01,
        "Cost": 3.01,
        "Drinks": 3,
        "Latitude": 35.5302392,
        "Longitude": 139.7004291
    },
    {
        "Name": "Tsunashimanokushiyayokochou",
        "Address": "1-4-23 Tsunashimanishi Kohoku-ku Yokohama Kanagawa",
        "Url": "http://tabelog.com/en/kanagawa/A1401/A140204/14052580/",
        "Dishes": 3.07,
        "Service": 3.02,
        "Atmosphere": 3.01,
        "Cost": 3,
        "Drinks": 3.02,
        "Latitude": 35.5377724,
        "Longitude": 139.6349931
    },
    {
        "Name": "sakaiya",
        "Address": "3-31 Masagocho Naka-ku Yokohama Kanagawa",
        "Url": "http://tabelog.com/en/kanagawa/A1401/A140104/14047183/",
        "Dishes": 3,
        "Service": 2.99,
        "Atmosphere": 3.02,
        "Cost": 3.02,
        "Drinks": 3,
        "Latitude": 35.4452298,
        "Longitude": 139.6360868
    },
    {
        "Name": "LAFALE",
        "Address": "2-13-11 Tsuruyacho Kanagawa-ku Yokohama Kanagawa",
        "Url": "http://tabelog.com/en/kanagawa/A1401/A140101/14050936/",
        "Dishes": 3.01,
        "Service": 3.01,
        "Atmosphere": 3.02,
        "Cost": 3.02,
        "Drinks": 3.01,
        "Latitude": 35.4685104,
        "Longitude": 139.6231064
    },
    {
        "Name": "Chuugokuryouritoukaen",
        "Address": "1-11-3 Kitasaiwai Nishi-ku Yokohama Kanagawa",
        "Url": "http://tabelog.com/en/kanagawa/A1401/A140101/14007165/",
        "Dishes": 3.19,
        "Service": 3.1,
        "Atmosphere": 3.15,
        "Cost": 3.09,
        "Drinks": 3.03,
        "Latitude": 35.4679243,
        "Longitude": 139.6183819
    },
    {
        "Name": "Barudeesupanazoro",
        "Address": "1-20-18 Nakagawa Tsuzuki-ku Yokohama Kanagawa",
        "Url": "http://tabelog.com/en/kanagawa/A1401/A140203/14009042/",
        "Dishes": 3.3,
        "Service": 3.49,
        "Atmosphere": 3.53,
        "Cost": 3.5,
        "Drinks": 3.47,
        "Latitude": 35.5641174,
        "Longitude": 139.5699408
    },
    {
        "Name": "Saizeriya",
        "Address": "1-18-5 Kamiookanishi Konan-ku Yokohama Kanagawa",
        "Url": "http://tabelog.com/en/kanagawa/A1401/A140307/14036090/",
        "Dishes": 3.01,
        "Service": 3,
        "Atmosphere": 3,
        "Cost": 3.02,
        "Drinks": 3,
        "Latitude": 35.4072873,
        "Longitude": 139.5949495
    },
    {
        "Name": "Shisaidoparasoru",
        "Address": "1-12-7 Katasekaigan Fujisawa Kanagawa",
        "Url": "http://tabelog.com/en/kanagawa/A1404/A140403/14029048/",
        "Dishes": 3.25,
        "Service": 3.37,
        "Atmosphere": 3.27,
        "Cost": 3.14,
        "Drinks": 3.02,
        "Latitude": 35.3079037,
        "Longitude": 139.4861613
    },
    {
        "Name": "Domareshounan",
        "Address": "10-3 Ekimae Honcho Kawasaki-ku Kawasaki Kanagawa",
        "Url": "http://tabelog.com/en/kanagawa/A1405/A140501/14006834/",
        "Dishes": 3.14,
        "Service": 3.17,
        "Atmosphere": 3.16,
        "Cost": 3.19,
        "Drinks": 3.24,
        "Latitude": 35.53203060000001,
        "Longitude": 139.6991986
    },
    {
        "Name": "Irohanihoheto",
        "Address": "1-4-14 Yamatohigashi Yamato Kanagawa",
        "Url": "http://tabelog.com/en/kanagawa/A1407/A140702/14012751/",
        "Dishes": 3,
        "Service": 3,
        "Atmosphere": 3,
        "Cost": 3,
        "Drinks": 3,
        "Latitude": 35.4705194,
        "Longitude": 139.4626922
    },
    {
        "Name": "Shouya",
        "Address": "2-5-16 Shinyokohama Kohoku-ku Yokohama Kanagawa",
        "Url": "http://tabelog.com/en/kanagawa/A1401/A140206/14035251/",
        "Dishes": 3.01,
        "Service": 3,
        "Atmosphere": 3.02,
        "Cost": 3.01,
        "Drinks": 3,
        "Latitude": 35.5092029,
        "Longitude": 139.6155375
    },
    {
        "Name": "Taishougun",
        "Address": "5-17 Ogawacho Kawasaki-ku Kawasaki Kanagawa",
        "Url": "http://tabelog.com/en/kanagawa/A1405/A140501/14000825/",
        "Dishes": 3.31,
        "Service": 2.99,
        "Atmosphere": 3.22,
        "Cost": 3.15,
        "Drinks": 3.16,
        "Latitude": 35.5280562,
        "Longitude": 139.6969767
    },
    {
        "Name": "Uotami",
        "Address": "3-417 Kosugimachi Nakahara-ku Kawasaki Kanagawa",
        "Url": "http://tabelog.com/en/kanagawa/A1405/A140504/14042465/",
        "Dishes": 3,
        "Service": 3,
        "Atmosphere": 3,
        "Cost": 3,
        "Drinks": 3,
        "Latitude": 35.5758545,
        "Longitude": 139.6583923
    },
    {
        "Name": "Sammaruku",
        "Address": "47-13 Shibacho Kanazawa-ku Yokohama Kanagawa",
        "Url": "http://tabelog.com/en/kanagawa/A1401/A140310/14004689/",
        "Dishes": 3.01,
        "Service": 3.01,
        "Atmosphere": 3.03,
        "Cost": 3,
        "Drinks": 3,
        "Latitude": 35.34330509999999,
        "Longitude": 139.636621
    },
    {
        "Name": "Izakayaramakku",
        "Address": "1-5 Kamiookanishi Konan-ku Yokohama Kanagawa",
        "Url": "http://tabelog.com/en/kanagawa/A1401/A140307/14056922/",
        "Dishes": 3.05,
        "Service": 3.05,
        "Atmosphere": 3.05,
        "Cost": 3.05,
        "Drinks": 3.05,
        "Latitude": 35.4107213,
        "Longitude": 139.5958623
    },
    {
        "Name": "Tokori",
        "Address": "1-1-7 Sakuragicho Naka-ku Yokohama Kanagawa",
        "Url": "http://tabelog.com/en/kanagawa/A1401/A140102/14035103/",
        "Dishes": 3.39,
        "Service": 3.17,
        "Atmosphere": 3.38,
        "Cost": 3.04,
        "Drinks": 3.01,
        "Latitude": 35.4497142,
        "Longitude": 139.6310632
    },
    {
        "Name": "Buya",
        "Address": "1-4-16 Kamiookanishi Konan-ku Yokohama Kanagawa",
        "Url": "http://tabelog.com/en/kanagawa/A1401/A140307/14015710/",
        "Dishes": 3.13,
        "Service": 3.13,
        "Atmosphere": 3.14,
        "Cost": 3.22,
        "Drinks": 3.04,
        "Latitude": 35.4105064,
        "Longitude": 139.5970187
    },
    {
        "Name": "ORIENTAL CAFE",
        "Address": "2-16-4 Minamisaiwai Nishi-ku Yokohama Kanagawa",
        "Url": "http://tabelog.com/en/kanagawa/A1401/A140101/14003211/",
        "Dishes": 2.99,
        "Service": 3.18,
        "Atmosphere": 3.35,
        "Cost": 3.2,
        "Drinks": 3.01,
        "Latitude": 35.4635092,
        "Longitude": 139.6162135
    },
    {
        "Name": "Kagura",
        "Address": "2-23-4 Miyagawacho Naka-ku Yokohama Kanagawa",
        "Url": "http://tabelog.com/en/kanagawa/A1401/A140102/14054945/",
        "Dishes": 3.25,
        "Service": 3.17,
        "Atmosphere": 3.27,
        "Cost": 3.1,
        "Drinks": 3.12,
        "Latitude": 35.4469546,
        "Longitude": 139.6292483
    },
    {
        "Name": "Kisoji",
        "Address": "1-4-18 Kawana Fujisawa Kanagawa",
        "Url": "http://tabelog.com/en/kanagawa/A1404/A140404/14041651/",
        "Dishes": 3.09,
        "Service": 3.12,
        "Atmosphere": 3.1,
        "Cost": 3.03,
        "Drinks": 3.04,
        "Latitude": 35.3347847,
        "Longitude": 139.4945383
    },
    {
        "Name": "Le Trianon",
        "Address": "1-2-18 Shichirigahama Kamakura Kanagawa",
        "Url": "http://tabelog.com/en/kanagawa/A1404/A140402/14000279/",
        "Dishes": 3.16,
        "Service": 3.14,
        "Atmosphere": 3.12,
        "Cost": 3.06,
        "Drinks": 3.12,
        "Latitude": 35.305904,
        "Longitude": 139.5097758
    },
    {
        "Name": "Sandglass cafe",
        "Address": "1-8-1 Chuo Ebina Kanagawa",
        "Url": "http://tabelog.com/en/kanagawa/A1408/A140801/14006701/",
        "Dishes": 3.35,
        "Service": 3.24,
        "Atmosphere": 3.32,
        "Cost": 3.3,
        "Drinks": 3.16,
        "Latitude": 35.4536087,
        "Longitude": 139.3926584
    },
    {
        "Name": "Yunaiteddomitobaru",
        "Address": "4000-1 Totsukacho Totsuka-ku Yokohama Kanagawa",
        "Url": "http://tabelog.com/en/kanagawa/A1401/A140305/14057815/",
        "Dishes": 3.1,
        "Service": 3.11,
        "Atmosphere": 3.1,
        "Cost": 3.08,
        "Drinks": 3.04,
        "Latitude": 35.3987709,
        "Longitude": 139.5315325
    },
    {
        "Name": "Nabekin",
        "Address": "2-924 Shinmarukohigashi Nakahara-ku Kawasaki Kanagawa",
        "Url": "http://tabelog.com/en/kanagawa/A1405/A140504/14031717/",
        "Dishes": 3.05,
        "Service": 3.08,
        "Atmosphere": 3.17,
        "Cost": 3.02,
        "Drinks": 3.03,
        "Latitude": 35.5769626,
        "Longitude": 139.6608114
    },
    {
        "Name": "Kurakuradainingu",
        "Address": "2-60 Hanasakicho Naka-ku Yokohama Kanagawa",
        "Url": "http://tabelog.com/en/kanagawa/A1401/A140102/14037634/",
        "Dishes": 3.03,
        "Service": 3.04,
        "Atmosphere": 3.07,
        "Cost": 3,
        "Drinks": 3,
        "Latitude": 35.4495654,
        "Longitude": 139.6296093
    },
    {
        "Name": "Biottsu",
        "Address": "5-85 Chojamachi Naka-ku Yokohama Kanagawa",
        "Url": "http://tabelog.com/en/kanagawa/A1401/A140104/14057529/",
        "Dishes": 3.15,
        "Service": 3.15,
        "Atmosphere": 3.1,
        "Cost": 3.15,
        "Drinks": 3.1,
        "Latitude": 35.4423413,
        "Longitude": 139.6321232
    },
    {
        "Name": "Kurachi",
        "Address": "2-13-2 Tsuruyacho Kanagawa-ku Yokohama Kanagawa",
        "Url": "http://tabelog.com/en/kanagawa/A1401/A140101/14002225/",
        "Dishes": 3.27,
        "Service": 3.15,
        "Atmosphere": 3.15,
        "Cost": 3,
        "Drinks": 3.03,
        "Latitude": 35.468527,
        "Longitude": 139.6233036
    },
    {
        "Name": "Teppachiya",
        "Address": "2-4-6 Shinyokohama Kohoku-ku Yokohama Kanagawa",
        "Url": "http://tabelog.com/en/kanagawa/A1401/A140206/14005344/",
        "Dishes": 3.1,
        "Service": 3.02,
        "Atmosphere": 3,
        "Cost": 3.21,
        "Drinks": 3,
        "Latitude": 35.5085779,
        "Longitude": 139.615407
    },
    {
        "Name": "Roiyaruhosuto",
        "Address": "1-8-7 Sahara Yokosuka Kanagawa",
        "Url": "http://tabelog.com/en/kanagawa/A1406/A140601/14038885/",
        "Dishes": 3.02,
        "Service": 3.01,
        "Atmosphere": 3.01,
        "Cost": 3.02,
        "Drinks": 3.01,
        "Latitude": 35.2418366,
        "Longitude": 139.6795328
    },
    {
        "Name": "Massamantaikicchin",
        "Address": "1045-6 Oiso Oiso Naka-gun Kanagawa",
        "Url": "http://tabelog.com/en/kanagawa/A1404/A140408/14048869/",
        "Dishes": 3.22,
        "Service": 3.06,
        "Atmosphere": 3.14,
        "Cost": 3.06,
        "Drinks": 3.02,
        "Latitude": 35.3105132,
        "Longitude": 139.3162688
    },
    {
        "Name": "Kafeeithieito",
        "Address": "88 Yamashitacho Naka-ku Yokohama Kanagawa",
        "Url": "http://tabelog.com/en/kanagawa/A1401/A140104/14052892/",
        "Dishes": 3.43,
        "Service": 3.32,
        "Atmosphere": 3.5,
        "Cost": 3.46,
        "Drinks": 3.4,
        "Latitude": 35.44223849999999,
        "Longitude": 139.6502998
    },
    {
        "Name": "Mammaru",
        "Address": "2-50 Aioicho Naka-ku Yokohama Kanagawa",
        "Url": "http://tabelog.com/en/kanagawa/A1401/A140104/14007269/",
        "Dishes": 3.09,
        "Service": 2.99,
        "Atmosphere": 3.01,
        "Cost": 3.03,
        "Drinks": 3.02,
        "Latitude": 35.4464769,
        "Longitude": 139.6383115
    },
    {
        "Name": "Shirokiya",
        "Address": "1-12-18 Mizonokuchi Takatsu-ku Kawasaki Kanagawa",
        "Url": "http://tabelog.com/en/kanagawa/A1405/A140505/14041017/",
        "Dishes": 3,
        "Service": 3,
        "Atmosphere": 3,
        "Cost": 3,
        "Drinks": 3,
        "Latitude": 35.6003537,
        "Longitude": 139.6134064
    },
    {
        "Name": "FRESHNESS BURGER",
        "Address": "2-5-3 Kizuki Nakahara-ku Kawasaki Kanagawa",
        "Url": "http://tabelog.com/en/kanagawa/A1405/A140504/14045459/",
        "Dishes": 3,
        "Service": 3,
        "Atmosphere": 3,
        "Cost": 3,
        "Drinks": 3.02,
        "Latitude": 35.5647176,
        "Longitude": 139.6548738
    },
    {
        "Name": "Teppanyakiresutoranoku",
        "Address": "3-18-1 Shinyokohama Kohoku-ku Yokohama Kanagawa",
        "Url": "http://tabelog.com/en/kanagawa/A1401/A140206/14007319/",
        "Dishes": 3.54,
        "Service": 3.52,
        "Atmosphere": 3.52,
        "Cost": 3.56,
        "Drinks": 3.3,
        "Latitude": 35.5099695,
        "Longitude": 139.6167041
    },
    {
        "Name": "Yadaizushi",
        "Address": "18-14 Matsugaecho Minami-ku Sagamihara Kanagawa",
        "Url": "http://tabelog.com/en/kanagawa/A1407/A140701/14029954/",
        "Dishes": 3,
        "Service": 3,
        "Atmosphere": 3,
        "Cost": 3,
        "Drinks": 3,
        "Latitude": 35.5157065,
        "Longitude": 139.4241736
    },
    {
        "Name": "Yanawaraba",
        "Address": "1-12-14 Mizonokuchi Takatsu-ku Kawasaki Kanagawa",
        "Url": "http://tabelog.com/en/kanagawa/A1405/A140505/14021138/",
        "Dishes": 3.07,
        "Service": 3.07,
        "Atmosphere": 3.07,
        "Cost": 3.04,
        "Drinks": 3.13,
        "Latitude": 35.6003954,
        "Longitude": 139.6131064
    },
    {
        "Name": "Hisuirou",
        "Address": "139 Yamashitacho Naka-ku Yokohama Kanagawa",
        "Url": "http://tabelog.com/en/kanagawa/A1401/A140105/14012118/",
        "Dishes": 3.21,
        "Service": 3,
        "Atmosphere": 3.05,
        "Cost": 3.25,
        "Drinks": 3.02,
        "Latitude": 35.4425468,
        "Longitude": 139.6455251
    },
    {
        "Name": "Miyazakikennichinanshitsukadanoujou",
        "Address": "1-1-5 Kitasaiwai Nishi-ku Yokohama Kanagawa",
        "Url": "http://tabelog.com/en/kanagawa/A1401/A140101/14039440/",
        "Dishes": 3.15,
        "Service": 3.07,
        "Atmosphere": 3.03,
        "Cost": 3.03,
        "Drinks": 3.02,
        "Latitude": 35.4675438,
        "Longitude": 139.621651
    },
    {
        "Name": "Kotobukiyahanare",
        "Address": "1-2-2 Hisamoto Takatsu-ku Kawasaki Kanagawa",
        "Url": "http://tabelog.com/en/kanagawa/A1405/A140505/14057603/",
        "Dishes": 3,
        "Service": 3,
        "Atmosphere": 3.01,
        "Cost": 3,
        "Drinks": 3,
        "Latitude": 35.598729,
        "Longitude": 139.6094986
    },
    {
        "Name": "Bashamichinohimonoya",
        "Address": "4-43 Masagocho Naka-ku Yokohama Kanagawa",
        "Url": "http://tabelog.com/en/kanagawa/A1401/A140104/14003342/",
        "Dishes": 3.02,
        "Service": 3.01,
        "Atmosphere": 3.01,
        "Cost": 3.01,
        "Drinks": 3,
        "Latitude": 35.4457687,
        "Longitude": 139.6350812
    },
    {
        "Name": "Saizeriya",
        "Address": "6-1-1 Ofuna Kamakura Kanagawa",
        "Url": "http://tabelog.com/en/kanagawa/A1404/A140401/14036249/",
        "Dishes": 3,
        "Service": 3,
        "Atmosphere": 3,
        "Cost": 3.01,
        "Drinks": 3,
        "Latitude": 35.354113,
        "Longitude": 139.5383099
    },
    {
        "Name": "Kushikatsudengana",
        "Address": "2-1 Ogawacho Kawasaki-ku Kawasaki Kanagawa",
        "Url": "http://tabelog.com/en/kanagawa/A1405/A140501/14036701/",
        "Dishes": 3.07,
        "Service": 3,
        "Atmosphere": 3.05,
        "Cost": 3.04,
        "Drinks": 3.01,
        "Latitude": 35.5287394,
        "Longitude": 139.6988071
    },
    {
        "Name": "Sangendou",
        "Address": "1-11-23 Ofuna Kamakura Kanagawa",
        "Url": "http://tabelog.com/en/kanagawa/A1404/A140401/14005587/",
        "Dishes": 3.02,
        "Service": 3.02,
        "Atmosphere": 3.02,
        "Cost": 3.02,
        "Drinks": 3.02,
        "Latitude": 35.3521521,
        "Longitude": 139.5317658
    },
    {
        "Name": "Sennennoutage",
        "Address": "1-17-1 Manpukuji Asao-ku Kawasaki Kanagawa",
        "Url": "http://tabelog.com/en/kanagawa/A1405/A140508/14008316/",
        "Dishes": 3,
        "Service": 3,
        "Atmosphere": 3,
        "Cost": 3,
        "Drinks": 3,
        "Latitude": 35.604455,
        "Longitude": 139.5075771
    },
    {
        "Name": "Kokuryuu",
        "Address": "2-16-1 Utsukushigaoka Aoba-ku Yokohama Kanagawa",
        "Url": "http://tabelog.com/en/kanagawa/A1401/A140201/14002942/",
        "Dishes": 3.14,
        "Service": 3.12,
        "Atmosphere": 3.04,
        "Cost": 3.18,
        "Drinks": 3.04,
        "Latitude": 35.5793375,
        "Longitude": 139.5590744
    },
    {
        "Name": "Fujimaru",
        "Address": "2-7-2 Sakaecho Odawara Kanagawa",
        "Url": "http://tabelog.com/en/kanagawa/A1409/A140901/14012439/",
        "Dishes": 3.1,
        "Service": 3.01,
        "Atmosphere": 3,
        "Cost": 3.26,
        "Drinks": 3.01,
        "Latitude": 35.2557827,
        "Longitude": 139.1576686
    },
    {
        "Name": "Amiyakitei",
        "Address": "3-2-2 Miharucho Yokosuka Kanagawa",
        "Url": "http://tabelog.com/en/kanagawa/A1406/A140601/14034939/",
        "Dishes": 3.01,
        "Service": 3,
        "Atmosphere": 3,
        "Cost": 3.01,
        "Drinks": 3.01,
        "Latitude": 35.2658893,
        "Longitude": 139.6888569
    },
    {
        "Name": "Hinaikomachi",
        "Address": "10 Ekimae Honcho Kawasaki-ku Kawasaki Kanagawa",
        "Url": "http://tabelog.com/en/kanagawa/A1405/A140501/14007516/",
        "Dishes": 3.16,
        "Service": 3.13,
        "Atmosphere": 3.15,
        "Cost": 2.98,
        "Drinks": 3.09,
        "Latitude": 35.53203060000001,
        "Longitude": 139.6991986
    },
    {
        "Name": "Shouya",
        "Address": "1-17-26 Kamiookanishi Konan-ku Yokohama Kanagawa",
        "Url": "http://tabelog.com/en/kanagawa/A1401/A140307/14022362/",
        "Dishes": 3.02,
        "Service": 3.02,
        "Atmosphere": 3.02,
        "Cost": 3.02,
        "Drinks": 3.02,
        "Latitude": 35.4084927,
        "Longitude": 139.5948634
    },
    {
        "Name": "Yataiya",
        "Address": "2-8-16 Hashimoto Midori-ku Sagamihara Kanagawa",
        "Url": "http://tabelog.com/en/kanagawa/A1407/A140701/14013343/",
        "Dishes": 3,
        "Service": 3,
        "Atmosphere": 3.01,
        "Cost": 3.04,
        "Drinks": 3.02,
        "Latitude": 35.5954752,
        "Longitude": 139.3410204
    },
    {
        "Name": "NAVIGANTE",
        "Address": "Ishikawacho Naka-ku Yokohama Kanagawa",
        "Url": "http://tabelog.com/en/kanagawa/A1401/A140105/14058613/",
        "Dishes": 3.02,
        "Service": 3.02,
        "Atmosphere": 3.02,
        "Cost": 3.01,
        "Drinks": 3.01,
        "Latitude": 35.43808070000001,
        "Longitude": 139.6449421
    },
    {
        "Name": "Sushikusabiya",
        "Address": "2-2-6 Azamino Aoba-ku Yokohama Kanagawa",
        "Url": "http://tabelog.com/en/kanagawa/A1401/A140201/14011135/",
        "Dishes": 3.05,
        "Service": 3.05,
        "Atmosphere": 3.1,
        "Cost": 3.04,
        "Drinks": 3.01,
        "Latitude": 35.5701974,
        "Longitude": 139.5414047
    },
    {
        "Name": "Azur",
        "Address": "1-1-1 Minatomirai Nishi-ku Yokohama Kanagawa",
        "Url": "http://tabelog.com/en/kanagawa/A1401/A140103/14000627/",
        "Dishes": 3.5,
        "Service": 3.43,
        "Atmosphere": 3.55,
        "Cost": 3.05,
        "Drinks": 3.19,
        "Latitude": 35.4587199,
        "Longitude": 139.635714
    },
    {
        "Name": "Ekohiiki",
        "Address": "3-33 Masagocho Naka-ku Yokohama Kanagawa",
        "Url": "http://tabelog.com/en/kanagawa/A1401/A140104/14036825/",
        "Dishes": 3.05,
        "Service": 3.05,
        "Atmosphere": 3.05,
        "Cost": 3.06,
        "Drinks": 3.05,
        "Latitude": 35.445141,
        "Longitude": 139.6355785
    },
    {
        "Name": "Shirokiya",
        "Address": "1-36 Hanasakicho Naka-ku Yokohama Kanagawa",
        "Url": "http://tabelog.com/en/kanagawa/A1401/A140102/14022374/",
        "Dishes": 3.03,
        "Service": 3,
        "Atmosphere": 3.02,
        "Cost": 3.05,
        "Drinks": 3.03,
        "Latitude": 35.4493321,
        "Longitude": 139.6306231
    },
    {
        "Name": "Ooisogeihinkan",
        "Address": "1007 Oiso Oiso Naka-gun Kanagawa",
        "Url": "http://tabelog.com/en/kanagawa/A1404/A140408/14054121/",
        "Dishes": 3.33,
        "Service": 3.37,
        "Atmosphere": 3.47,
        "Cost": 3.17,
        "Drinks": 3.25,
        "Latitude": 35.3110576,
        "Longitude": 139.3145106
    },
    {
        "Name": "Ooshima",
        "Address": "2-3-7 Minatomirai Nishi-ku Yokohama Kanagawa",
        "Url": "http://tabelog.com/en/kanagawa/A1401/A140103/14001860/",
        "Dishes": 3.2,
        "Service": 3.14,
        "Atmosphere": 3.19,
        "Cost": 3.13,
        "Drinks": 3.03,
        "Latitude": 35.4574484,
        "Longitude": 139.6348484
    },
    {
        "Name": "Chakorugurirugurin",
        "Address": "12-2 Yoshidamachi Naka-ku Yokohama Kanagawa",
        "Url": "http://tabelog.com/en/kanagawa/A1401/A140104/14054916/",
        "Dishes": 3.17,
        "Service": 3.06,
        "Atmosphere": 3.1,
        "Cost": 3.15,
        "Drinks": 3.17,
        "Latitude": 35.44646300000001,
        "Longitude": 139.6325536
    },
    {
        "Name": "Bisutoroevannachuru",
        "Address": "4-18 Sakuragicho Nishi-ku Yokohama Kanagawa",
        "Url": "http://tabelog.com/en/kanagawa/A1401/A140102/14032058/",
        "Dishes": 3.11,
        "Service": 3.14,
        "Atmosphere": 3.12,
        "Cost": 3.11,
        "Drinks": 3.11,
        "Latitude": 35.4533761,
        "Longitude": 139.6281176
    },
    {
        "Name": "Zawatami",
        "Address": "1-11-6 Saginuma Miyamae-ku Kawasaki Kanagawa",
        "Url": "http://tabelog.com/en/kanagawa/A1405/A140507/14013072/",
        "Dishes": 3,
        "Service": 3,
        "Atmosphere": 3,
        "Cost": 3,
        "Drinks": 3,
        "Latitude": 35.5780876,
        "Longitude": 139.5729399
    },
    {
        "Name": "Kyuushuukurodaiko",
        "Address": "エフテムRONビル4F",
        "Url": "http://tabelog.com/en/kanagawa/A1401/A140101/14033602/",
        "Dishes": 3.01,
        "Service": 3,
        "Atmosphere": 3,
        "Cost": 3.06,
        "Drinks": 3,
        "Latitude": 35.4683266,
        "Longitude": 139.6229955
    },
    {
        "Name": "supaisupurasu",
        "Address": "横浜市保土ヶ谷区神戸町134",
        "Url": "http://tabelog.com/en/kanagawa/A1401/A140301/14055091/",
        "Dishes": 3.09,
        "Service": 3.05,
        "Atmosphere": 3.2,
        "Cost": 3.07,
        "Drinks": 3.1,
        "Latitude": 35.4538705,
        "Longitude": 139.5977515
    },
    {
        "Name": "Kushikatsudengana",
        "Address": "中原区木月2-5-7",
        "Url": "http://tabelog.com/en/kanagawa/A1405/A140504/14058388/",
        "Dishes": 3.02,
        "Service": 3.01,
        "Atmosphere": 3.02,
        "Cost": 3.01,
        "Drinks": 3.02,
        "Latitude": 35.5647315,
        "Longitude": 139.6551794
    },
    {
        "Name": "Sennoniwa",
        "Address": "11-1 Ekimae Honcho Kawasaki-ku Kawasaki Kanagawa",
        "Url": "http://tabelog.com/en/kanagawa/A1405/A140501/14006032/",
        "Dishes": 3.02,
        "Service": 3.01,
        "Atmosphere": 3.08,
        "Cost": 2.99,
        "Drinks": 3.01,
        "Latitude": 35.5316973,
        "Longitude": 139.6990792
    },
    {
        "Name": "Sumiyakibisutorojinenya",
        "Address": "2-6-18 Shinyokohama Kohoku-ku Yokohama Kanagawa",
        "Url": "http://tabelog.com/en/kanagawa/A1401/A140206/14001889/",
        "Dishes": 3,
        "Service": 3,
        "Atmosphere": 3,
        "Cost": 3,
        "Drinks": 3,
        "Latitude": 35.508439,
        "Longitude": 139.6146988
    },
    {
        "Name": "Seafloor",
        "Address": "2-4-5 Hagoromocho Naka-ku Yokohama Kanagawa",
        "Url": "http://tabelog.com/en/kanagawa/A1401/A140104/14006259/",
        "Dishes": 3,
        "Service": 3,
        "Atmosphere": 3.18,
        "Cost": 3,
        "Drinks": 3.03,
        "Latitude": 35.4440466,
        "Longitude": 139.6333537
    },
    {
        "Name": "Tsubomi",
        "Address": "2-16-2 Tsuruyacho Kanagawa-ku Yokohama Kanagawa",
        "Url": "http://tabelog.com/en/kanagawa/A1401/A140101/14037975/",
        "Dishes": 2.98,
        "Service": 2.98,
        "Atmosphere": 3,
        "Cost": 2.98,
        "Drinks": 2.98,
        "Latitude": 35.4683132,
        "Longitude": 139.6231702
    },
    {
        "Name": "Shabushabuonyasai",
        "Address": "10-5 Ekimae Honcho Kawasaki-ku Kawasaki Kanagawa",
        "Url": "http://tabelog.com/en/kanagawa/A1405/A140501/14042313/",
        "Dishes": 3.02,
        "Service": 3.01,
        "Atmosphere": 3,
        "Cost": 3.02,
        "Drinks": 3.01,
        "Latitude": 35.5319529,
        "Longitude": 139.6994319
    },
    {
        "Name": "Saizeriya",
        "Address": "16-1 Totsukacho Totsuka-ku Yokohama Kanagawa",
        "Url": "http://tabelog.com/en/kanagawa/A1401/A140305/14035416/",
        "Dishes": 3,
        "Service": 3,
        "Atmosphere": 3,
        "Cost": 3.01,
        "Drinks": 3,
        "Latitude": 35.4015872,
        "Longitude": 139.5332269
    },
    {
        "Name": "Nidaimekanaeyayutori",
        "Address": "4-27-5 Tsurumichuo Tsurumi-ku Yokohama Kanagawa",
        "Url": "http://tabelog.com/en/kanagawa/A1401/A140210/14030851/",
        "Dishes": 3.05,
        "Service": 3.05,
        "Atmosphere": 3.02,
        "Cost": 3.06,
        "Drinks": 3,
        "Latitude": 35.507626,
        "Longitude": 139.6789234
    },
    {
        "Name": "Capriccio",
        "Address": "Fukutomicho Nishidori Naka-ku Yokohama Kanagawa",
        "Url": "http://tabelog.com/en/kanagawa/A1401/A140102/14057813/",
        "Dishes": 3.51,
        "Service": 3.49,
        "Atmosphere": 3.46,
        "Cost": 3.52,
        "Drinks": 3.3,
        "Latitude": 35.4459242,
        "Longitude": 139.629951
    },
    {
        "Name": "Uokuni",
        "Address": "1-1-9 Sakaecho Odawara Kanagawa",
        "Url": "http://tabelog.com/en/kanagawa/A1409/A140901/14006405/",
        "Dishes": 3.27,
        "Service": 3.22,
        "Atmosphere": 3.18,
        "Cost": 3.01,
        "Drinks": 3.16,
        "Latitude": 35.25584,
        "Longitude": 139.1555818
    },
    {
        "Name": "Isshou",
        "Address": "4-18-4 Yabe Chuo-ku Sagamihara Kanagawa",
        "Url": "http://tabelog.com/en/kanagawa/A1407/A140701/14054603/",
        "Dishes": 3.34,
        "Service": 3.34,
        "Atmosphere": 3.4,
        "Cost": 3.28,
        "Drinks": 3.24,
        "Latitude": 35.5700614,
        "Longitude": 139.3885335
    },
    {
        "Name": "Kondou",
        "Address": "1-8-36 Yukinoshita Kamakura Kanagawa",
        "Url": "http://tabelog.com/en/kanagawa/A1404/A140402/14000253/",
        "Dishes": 3.28,
        "Service": 3.21,
        "Atmosphere": 3.21,
        "Cost": 3.22,
        "Drinks": 3.12,
        "Latitude": 35.3232639,
        "Longitude": 139.5543002
    },
    {
        "Name": "Yokohamauoman",
        "Address": "5-2 Ekimae Honcho Kawasaki-ku Kawasaki Kanagawa",
        "Url": "http://tabelog.com/en/kanagawa/A1405/A140501/14036799/",
        "Dishes": 2.99,
        "Service": 2.98,
        "Atmosphere": 2.99,
        "Cost": 3,
        "Drinks": 3.01,
        "Latitude": 35.53018369999999,
        "Longitude": 139.6990264
    },
    {
        "Name": "Satodorisankei",
        "Address": "1-1-7 Sakuragicho Naka-ku Yokohama Kanagawa",
        "Url": "http://tabelog.com/en/kanagawa/A1401/A140102/14055975/",
        "Dishes": 3.09,
        "Service": 3,
        "Atmosphere": 3.08,
        "Cost": 3.07,
        "Drinks": 3,
        "Latitude": 35.4497142,
        "Longitude": 139.6310632
    },
    {
        "Name": "Hamafuufuu",
        "Address": "9-27-6 Konandai Konan-ku Yokohama Kanagawa",
        "Url": "http://tabelog.com/en/kanagawa/A1401/A140309/14005784/",
        "Dishes": 3.04,
        "Service": 3.08,
        "Atmosphere": 3.05,
        "Cost": 3.08,
        "Drinks": 3,
        "Latitude": 35.3699639,
        "Longitude": 139.577443
    },
    {
        "Name": "Hamajirushisuisan",
        "Address": "2-11-4 Tsuruyacho Kanagawa-ku Yokohama Kanagawa",
        "Url": "http://tabelog.com/en/kanagawa/A1401/A140101/14037881/",
        "Dishes": 3.34,
        "Service": 3.23,
        "Atmosphere": 3.37,
        "Cost": 3.34,
        "Drinks": 3.13,
        "Latitude": 35.4694067,
        "Longitude": 139.6205455
    },
    {
        "Name": "Kitchen SUZUYA",
        "Address": "1-5-9 Shimokodanaka Nakahara-ku Kawasaki Kanagawa",
        "Url": "http://tabelog.com/en/kanagawa/A1405/A140504/14037273/",
        "Dishes": 3.1,
        "Service": 3.11,
        "Atmosphere": 3.06,
        "Cost": 3.11,
        "Drinks": 3.09,
        "Latitude": 35.5810148,
        "Longitude": 139.639652
    },
    {
        "Name": "Akiyoshi",
        "Address": "3-17-15 Shinyokohama Kohoku-ku Yokohama Kanagawa",
        "Url": "http://tabelog.com/en/kanagawa/A1401/A140206/14004175/",
        "Dishes": 3.02,
        "Service": 3,
        "Atmosphere": 3,
        "Cost": 3.19,
        "Drinks": 3.18,
        "Latitude": 35.5112221,
        "Longitude": 139.6183094
    },
    {
        "Name": "CAVOLLO CAFE",
        "Address": "2-19-2 Utsukushigaoka Aoba-ku Yokohama Kanagawa",
        "Url": "http://tabelog.com/en/kanagawa/A1401/A140201/14001388/",
        "Dishes": 3.09,
        "Service": 3,
        "Atmosphere": 3.14,
        "Cost": 3,
        "Drinks": 3.06,
        "Latitude": 35.5810622,
        "Longitude": 139.5585021
    },
    {
        "Name": "Hokkaidou",
        "Address": "1-4-1 Kitasaiwai Nishi-ku Yokohama Kanagawa",
        "Url": "http://tabelog.com/en/kanagawa/A1401/A140101/14022383/",
        "Dishes": 3.06,
        "Service": 3,
        "Atmosphere": 3.06,
        "Cost": 3.05,
        "Drinks": 3,
        "Latitude": 35.4672994,
        "Longitude": 139.6195734
    },
    {
        "Name": "GRATIA",
        "Address": "2-11-23 Aobadai Aoba-ku Yokohama Kanagawa",
        "Url": "http://tabelog.com/en/kanagawa/A1401/A140202/14044501/",
        "Dishes": 3.56,
        "Service": 3.56,
        "Atmosphere": 3.53,
        "Cost": 3.56,
        "Drinks": 3.54,
        "Latitude": 35.547024,
        "Longitude": 139.5168094
    },
    {
        "Name": "Aburiya",
        "Address": "2-3-10 Shinyokohama Kohoku-ku Yokohama Kanagawa",
        "Url": "http://tabelog.com/en/kanagawa/A1401/A140206/14030259/",
        "Dishes": 3.02,
        "Service": 3,
        "Atmosphere": 3,
        "Cost": 3.02,
        "Drinks": 3.01,
        "Latitude": 35.5083391,
        "Longitude": 139.615121
    },
    {
        "Name": "Pinkuponikafe",
        "Address": "1-2 Yonegahamadori Yokosuka Kanagawa",
        "Url": "http://tabelog.com/en/kanagawa/A1406/A140601/14006682/",
        "Dishes": 3.04,
        "Service": 3.05,
        "Atmosphere": 3.06,
        "Cost": 3.06,
        "Drinks": 3.04,
        "Latitude": 35.2777858,
        "Longitude": 139.6747862
    },
    {
        "Name": "Rakuichi",
        "Address": "2-19 Tsuruyacho Kanagawa-ku Yokohama Kanagawa",
        "Url": "http://tabelog.com/en/kanagawa/A1401/A140101/14008581/",
        "Dishes": 3.01,
        "Service": 3,
        "Atmosphere": 3,
        "Cost": 3,
        "Drinks": 3,
        "Latitude": 35.4691409,
        "Longitude": 139.6221981
    },
    {
        "Name": "Shunsaishokkenhinano",
        "Address": "3-1-3 Konandai Konan-ku Yokohama Kanagawa",
        "Url": "http://tabelog.com/en/kanagawa/A1401/A140309/14038248/",
        "Dishes": 3.04,
        "Service": 3,
        "Atmosphere": 3.03,
        "Cost": 3.04,
        "Drinks": 3.01,
        "Latitude": 35.3747105,
        "Longitude": 139.5775402
    },
    {
        "Name": "Hokkaidou",
        "Address": "1-1-3 Mizonokuchi Takatsu-ku Kawasaki Kanagawa",
        "Url": "http://tabelog.com/en/kanagawa/A1405/A140505/14047247/",
        "Dishes": 3.01,
        "Service": 3.01,
        "Atmosphere": 3.04,
        "Cost": 3.03,
        "Drinks": 3,
        "Latitude": 35.5988984,
        "Longitude": 139.6116289
    },
    {
        "Name": "Mamma Pasta",
        "Address": "1-7-11 Sakaecho Atsugi Kanagawa",
        "Url": "http://tabelog.com/en/kanagawa/A1408/A140802/14003852/",
        "Dishes": 3.08,
        "Service": 2.99,
        "Atmosphere": 3.03,
        "Cost": 3,
        "Drinks": 3.03,
        "Latitude": 35.441232,
        "Longitude": 139.3579671
    },
    {
        "Name": "Shichirinsumibiyakinikuyuurin",
        "Address": "2-25-1 Katahira Asao-ku Kawasaki Kanagawa",
        "Url": "http://tabelog.com/en/kanagawa/A1405/A140508/14025615/",
        "Dishes": 3.06,
        "Service": 3.06,
        "Atmosphere": 3.01,
        "Cost": 3.06,
        "Drinks": 3,
        "Latitude": 35.59388879999999,
        "Longitude": 139.4986834
    },
    {
        "Name": "kakitosakanakaihou",
        "Address": "3-6-1 Minatomirai Nishi-ku Yokohama Kanagawa",
        "Url": "http://tabelog.com/en/kanagawa/A1401/A140103/14053068/",
        "Dishes": 3.15,
        "Service": 3.07,
        "Atmosphere": 3.12,
        "Cost": 3.13,
        "Drinks": 3.14,
        "Latitude": 35.4574484,
        "Longitude": 139.6348484
    },
    {
        "Name": "sora",
        "Address": "川崎市高津区溝口1-1-30",
        "Url": "http://tabelog.com/en/kanagawa/A1405/A140505/14057857/",
        "Dishes": 3.02,
        "Service": 3.01,
        "Atmosphere": 3.04,
        "Cost": 3.01,
        "Drinks": 3.01,
        "Latitude": 35.5984096,
        "Longitude": 139.6113873
    },
    {
        "Name": "Shimodazushi",
        "Address": "5-29-17 Shimodacho Kohoku-ku Yokohama Kanagawa",
        "Url": "http://tabelog.com/en/kanagawa/A1401/A140204/14020156/",
        "Dishes": 3,
        "Service": 3.08,
        "Atmosphere": 3,
        "Cost": 3,
        "Drinks": 3,
        "Latitude": 35.5574994,
        "Longitude": 139.6268266
    },
    {
        "Name": "Sumiyakichuubouenya",
        "Address": "5-3-3 Higashirinkan Minami-ku Sagamihara Kanagawa",
        "Url": "http://tabelog.com/en/kanagawa/A1407/A140701/14010090/",
        "Dishes": 3.2,
        "Service": 3.31,
        "Atmosphere": 3.31,
        "Cost": 3.24,
        "Drinks": 3.22,
        "Latitude": 35.5200608,
        "Longitude": 139.4387083
    },
    {
        "Name": "azu-ro",
        "Address": "1-10-7 Ofuna Kamakura Kanagawa",
        "Url": "http://tabelog.com/en/kanagawa/A1404/A140401/14003514/",
        "Dishes": 3.13,
        "Service": 3.08,
        "Atmosphere": 3.17,
        "Cost": 3.18,
        "Drinks": 3.12,
        "Latitude": 35.3525854,
        "Longitude": 139.532088
    },
    {
        "Name": "Uogashinihonichi",
        "Address": "5-1 Chigasakichuo Tsuzuki-ku Yokohama Kanagawa",
        "Url": "http://tabelog.com/en/kanagawa/A1401/A140203/14002846/",
        "Dishes": 3,
        "Service": 3,
        "Atmosphere": 3,
        "Cost": 3,
        "Drinks": 3,
        "Latitude": 35.5444257,
        "Longitude": 139.5724217
    },
    {
        "Name": "Suiyou",
        "Address": "2-62 Hanasakicho Naka-ku Yokohama Kanagawa",
        "Url": "http://tabelog.com/en/kanagawa/A1401/A140102/14036410/",
        "Dishes": 3.3,
        "Service": 3.05,
        "Atmosphere": 2.99,
        "Cost": 3.5,
        "Drinks": 3.12,
        "Latitude": 35.4496404,
        "Longitude": 139.6293148
    },
    {
        "Name": "Kokosu",
        "Address": "2-5-7 Kodai Miyamae-ku Kawasaki Kanagawa",
        "Url": "http://tabelog.com/en/kanagawa/A1405/A140507/14035772/",
        "Dishes": 3,
        "Service": 3,
        "Atmosphere": 3,
        "Cost": 3,
        "Drinks": 3,
        "Latitude": 35.5842312,
        "Longitude": 139.5824664
    },
    {
        "Name": "Suzuya",
        "Address": "1-6-2 Shimokodanaka Nakahara-ku Kawasaki Kanagawa",
        "Url": "http://tabelog.com/en/kanagawa/A1405/A140504/14006960/",
        "Dishes": 3.07,
        "Service": 3.01,
        "Atmosphere": 3.03,
        "Cost": 3.03,
        "Drinks": 3.04,
        "Latitude": 35.5813397,
        "Longitude": 139.6398241
    },
    {
        "Name": "Chuukagaidaihanten",
        "Address": "202-8 Yamashitacho Naka-ku Yokohama Kanagawa",
        "Url": "http://tabelog.com/en/kanagawa/A1401/A140105/14054592/",
        "Dishes": 3.12,
        "Service": 3.12,
        "Atmosphere": 3.12,
        "Cost": 3.12,
        "Drinks": 3.12,
        "Latitude": 35.4430412,
        "Longitude": 139.6436002
    },
    {
        "Name": "Bistro Vin Vin",
        "Address": "2-14-25 Shinyokohama Kohoku-ku Yokohama Kanagawa",
        "Url": "http://tabelog.com/en/kanagawa/A1401/A140206/14050158/",
        "Dishes": 3.22,
        "Service": 3.27,
        "Atmosphere": 3.27,
        "Cost": 3.36,
        "Drinks": 3.36,
        "Latitude": 35.5097195,
        "Longitude": 139.6148098
    },
    {
        "Name": "Mongoruryourigara",
        "Address": "2-28 Bentendori Naka-ku Yokohama Kanagawa",
        "Url": "http://tabelog.com/en/kanagawa/A1401/A140104/14057478/",
        "Dishes": 3.24,
        "Service": 3.24,
        "Atmosphere": 3.3,
        "Cost": 3.24,
        "Drinks": 3.12,
        "Latitude": 35.4476518,
        "Longitude": 139.6391392
    },
    {
        "Name": "Saizeriya",
        "Address": "1-68-2 Futamatagawa Asahi-ku Yokohama Kanagawa",
        "Url": "http://tabelog.com/en/kanagawa/A1401/A140303/14027295/",
        "Dishes": 3,
        "Service": 3,
        "Atmosphere": 3,
        "Cost": 3.02,
        "Drinks": 3.01,
        "Latitude": 35.467229,
        "Longitude": 139.5300157
    },
    {
        "Name": "Gimpachisushi",
        "Address": "30 Horikawa Hadano Kanagawa",
        "Url": "http://tabelog.com/en/kanagawa/A1408/A140804/14013873/",
        "Dishes": 3.09,
        "Service": 3.02,
        "Atmosphere": 3,
        "Cost": 3,
        "Drinks": 3,
        "Latitude": 35.3790928,
        "Longitude": 139.1908624
    },
    {
        "Name": "Gyuukaku",
        "Address": "2-1-22 Minamisaiwai Nishi-ku Yokohama Kanagawa",
        "Url": "http://tabelog.com/en/kanagawa/A1401/A140101/14008186/",
        "Dishes": 3,
        "Service": 3,
        "Atmosphere": 3,
        "Cost": 3,
        "Drinks": 3,
        "Latitude": 35.4637193,
        "Longitude": 139.6189292
    },
    {
        "Name": "FRESHNESS BURGER",
        "Address": "2-14-25 Shinyokohama Kohoku-ku Yokohama Kanagawa",
        "Url": "http://tabelog.com/en/kanagawa/A1401/A140206/14010767/",
        "Dishes": 3,
        "Service": 3.03,
        "Atmosphere": 3.08,
        "Cost": 2.99,
        "Drinks": 3,
        "Latitude": 35.5097195,
        "Longitude": 139.6148098
    },
    {
        "Name": "Giburi",
        "Address": "1-38-6 Nakagawachuo Tsuzuki-ku Yokohama Kanagawa",
        "Url": "http://tabelog.com/en/kanagawa/A1401/A140203/14010010/",
        "Dishes": 3.03,
        "Service": 3.04,
        "Atmosphere": 3.15,
        "Cost": 3.01,
        "Drinks": 3.02,
        "Latitude": 35.5553132,
        "Longitude": 139.5805957
    },
    {
        "Name": "Gempinfugu",
        "Address": "2-12-1 Azamino Aoba-ku Yokohama Kanagawa",
        "Url": "http://tabelog.com/en/kanagawa/A1401/A140201/14008832/",
        "Dishes": 3.02,
        "Service": 3,
        "Atmosphere": 3,
        "Cost": 3.01,
        "Drinks": 3,
        "Latitude": 35.5683306,
        "Longitude": 139.5502118
    },
    {
        "Name": "Resutorambajiou",
        "Address": "1-11-12 Minamirinkan Yamato Kanagawa",
        "Url": "http://tabelog.com/en/kanagawa/A1407/A140702/14004271/",
        "Dishes": 3.01,
        "Service": 3,
        "Atmosphere": 3.01,
        "Cost": 3,
        "Drinks": 3,
        "Latitude": 35.4939609,
        "Longitude": 139.4462947
    },
    {
        "Name": "Ball Hafen",
        "Address": "3-141-6 Motomachi Naka-ku Yokohama Kanagawa",
        "Url": "http://tabelog.com/en/kanagawa/A1401/A140105/14058017/",
        "Dishes": 3.34,
        "Service": 3.45,
        "Atmosphere": 3.29,
        "Cost": 3.49,
        "Drinks": 3.28,
        "Latitude": 35.4397499,
        "Longitude": 139.6479335
    },
    {
        "Name": "Bisutorohambagu",
        "Address": "23-10 Minamifujisawa Fujisawa Kanagawa",
        "Url": "http://tabelog.com/en/kanagawa/A1404/A140404/14043606/",
        "Dishes": 3.31,
        "Service": 3,
        "Atmosphere": 3.08,
        "Cost": 3.11,
        "Drinks": 3,
        "Latitude": 35.3380176,
        "Longitude": 139.4863641
    },
    {
        "Name": "Benchi",
        "Address": "1-16-16 Okano Nishi-ku Yokohama Kanagawa",
        "Url": "http://tabelog.com/en/kanagawa/A1401/A140101/14038953/",
        "Dishes": 3.14,
        "Service": 3.14,
        "Atmosphere": 3.27,
        "Cost": 3.1,
        "Drinks": 3,
        "Latitude": 35.46329710000001,
        "Longitude": 139.6151241
    },
    {
        "Name": "Ryuuka",
        "Address": "2-1-8 Suge Tama-ku Kawasaki Kanagawa",
        "Url": "http://tabelog.com/en/kanagawa/A1405/A140506/14051298/",
        "Dishes": 3.03,
        "Service": 3.08,
        "Atmosphere": 3.02,
        "Cost": 3.02,
        "Drinks": 3.03,
        "Latitude": 35.6338506,
        "Longitude": 139.5334123
    },
    {
        "Name": "La Masa",
        "Address": "1-1-7 Sakaecho Odawara Kanagawa",
        "Url": "http://tabelog.com/en/kanagawa/A1409/A140901/14056630/",
        "Dishes": 3.01,
        "Service": 3,
        "Atmosphere": 3.1,
        "Cost": 3.01,
        "Drinks": 3.01,
        "Latitude": 35.2556178,
        "Longitude": 139.1560206
    },
    {
        "Name": "Aoki",
        "Address": "4-65 Aioicho Naka-ku Yokohama Kanagawa",
        "Url": "http://tabelog.com/en/kanagawa/A1401/A140104/14052979/",
        "Dishes": 3.35,
        "Service": 3.1,
        "Atmosphere": 3.19,
        "Cost": 3.33,
        "Drinks": 3.06,
        "Latitude": 35.4475907,
        "Longitude": 139.6367422
    },
    {
        "Name": "Binchouougiya",
        "Address": "2-3-2 Suge Tama-ku Kawasaki Kanagawa",
        "Url": "http://tabelog.com/en/kanagawa/A1405/A140506/14011486/",
        "Dishes": 3.02,
        "Service": 3.01,
        "Atmosphere": 3.01,
        "Cost": 3.03,
        "Drinks": 3.03,
        "Latitude": 35.6329313,
        "Longitude": 139.5343651
    },
    {
        "Name": "Bisutoroshounan",
        "Address": "1-20-14 Ofuna Kamakura Kanagawa",
        "Url": "http://tabelog.com/en/kanagawa/A1404/A140401/14049738/",
        "Dishes": 3.42,
        "Service": 3.5,
        "Atmosphere": 3.32,
        "Cost": 3.53,
        "Drinks": 3.31,
        "Latitude": 35.3518522,
        "Longitude": 139.5327602
    },
    {
        "Name": "Tonchinkan",
        "Address": "2-17-8 Minamisaiwai Nishi-ku Yokohama Kanagawa",
        "Url": "http://tabelog.com/en/kanagawa/A1401/A140101/14028979/",
        "Dishes": 3.2,
        "Service": 3,
        "Atmosphere": 3.04,
        "Cost": 3.11,
        "Drinks": 3.1,
        "Latitude": 35.4637304,
        "Longitude": 139.6160934
    },
    {
        "Name": "Masukane",
        "Address": "1-4 Shinmeicho Saiwai-ku Kawasaki Kanagawa",
        "Url": "http://tabelog.com/en/kanagawa/A1405/A140501/14027689/",
        "Dishes": 3.04,
        "Service": 3,
        "Atmosphere": 3.03,
        "Cost": 3.03,
        "Drinks": 3,
        "Latitude": 35.5388907,
        "Longitude": 139.6913741
    },
    {
        "Name": "Uotakesuisan",
        "Address": "1-14-1 Mizonokuchi Takatsu-ku Kawasaki Kanagawa",
        "Url": "http://tabelog.com/en/kanagawa/A1405/A140505/14013229/",
        "Dishes": 3.1,
        "Service": 3.07,
        "Atmosphere": 3.05,
        "Cost": 3,
        "Drinks": 3,
        "Latitude": 35.6002399,
        "Longitude": 139.6137758
    },
    {
        "Name": "Yokohamatsuki",
        "Address": "2-5-1 Minamisaiwai Nishi-ku Yokohama Kanagawa",
        "Url": "http://tabelog.com/en/kanagawa/A1401/A140101/14003046/",
        "Dishes": 3.21,
        "Service": 3.18,
        "Atmosphere": 3.23,
        "Cost": 3.02,
        "Drinks": 3.1,
        "Latitude": 35.4636956,
        "Longitude": 139.6184641
    },
    {
        "Name": "Uotami",
        "Address": "1-3-7 Isago Kawasaki-ku Kawasaki Kanagawa",
        "Url": "http://tabelog.com/en/kanagawa/A1405/A140501/14013924/",
        "Dishes": 3.01,
        "Service": 3.01,
        "Atmosphere": 3.01,
        "Cost": 3.01,
        "Drinks": 3.01,
        "Latitude": 35.5320001,
        "Longitude": 139.7005735
    },
    {
        "Name": "Suyama",
        "Address": "1-7 Yayoicho Naka-ku Yokohama Kanagawa",
        "Url": "http://tabelog.com/en/kanagawa/A1401/A140104/14001704/",
        "Dishes": 3.06,
        "Service": 3.03,
        "Atmosphere": 3.06,
        "Cost": 3,
        "Drinks": 3.03,
        "Latitude": 35.4407665,
        "Longitude": 139.6312761
    },
    {
        "Name": "Warawara",
        "Address": "2-6-8 Isago Kawasaki-ku Kawasaki Kanagawa",
        "Url": "http://tabelog.com/en/kanagawa/A1405/A140501/14021245/",
        "Dishes": 3,
        "Service": 3.01,
        "Atmosphere": 3,
        "Cost": 3.02,
        "Drinks": 3,
        "Latitude": 35.5289783,
        "Longitude": 139.7001653
    },
    {
        "Name": "santouchuubou",
        "Address": "港北区綱島東1-1-6",
        "Url": "http://tabelog.com/en/kanagawa/A1401/A140204/14052788/",
        "Dishes": 3,
        "Service": 2.99,
        "Atmosphere": 3,
        "Cost": 3.06,
        "Drinks": 3,
        "Latitude": 35.5368837,
        "Longitude": 139.635207
    },
    {
        "Name": "Zawatami",
        "Address": "2-4-17 Isago Kawasaki-ku Kawasaki Kanagawa",
        "Url": "http://tabelog.com/en/kanagawa/A1405/A140501/14012115/",
        "Dishes": 3,
        "Service": 3.01,
        "Atmosphere": 3.01,
        "Cost": 3,
        "Drinks": 3,
        "Latitude": 35.5301725,
        "Longitude": 139.7007596
    },
    {
        "Name": "Restaurant NORI et NOJI",
        "Address": "2-5-18 Kugenumakaigan Fujisawa Kanagawa",
        "Url": "http://tabelog.com/en/kanagawa/A1404/A140403/14051291/",
        "Dishes": 3.13,
        "Service": 3.13,
        "Atmosphere": 3.1,
        "Cost": 3.12,
        "Drinks": 3.03,
        "Latitude": 35.3205269,
        "Longitude": 139.47026
    },
    {
        "Name": "Seaport Street",
        "Address": "2-2 Shiraho Kanazawa-ku Yokohama Kanagawa",
        "Url": "http://tabelog.com/en/kanagawa/A1401/A140310/14045927/",
        "Dishes": 3.04,
        "Service": 3,
        "Atmosphere": 2.99,
        "Cost": 3,
        "Drinks": 2.99,
        "Latitude": 35.3794726,
        "Longitude": 139.6468617
    },
    {
        "Name": "Arufakurosu",
        "Address": "2662-2 Noborito Tama-ku Kawasaki Kanagawa",
        "Url": "http://tabelog.com/en/kanagawa/A1405/A140506/14009700/",
        "Dishes": 3.01,
        "Service": 3.01,
        "Atmosphere": 3.01,
        "Cost": 3,
        "Drinks": 3.01,
        "Latitude": 35.6260371,
        "Longitude": 139.555758
    },
    {
        "Name": "Ajiambisutorodai",
        "Address": "1-20-8 Hiyoshihoncho Kohoku-ku Yokohama Kanagawa",
        "Url": "http://tabelog.com/en/kanagawa/A1401/A140204/14050931/",
        "Dishes": 3.21,
        "Service": 3.16,
        "Atmosphere": 3.28,
        "Cost": 3.17,
        "Drinks": 3.18,
        "Latitude": 35.5533335,
        "Longitude": 139.6455611
    },
    {
        "Name": "COCO'S",
        "Address": "2-38-11 Hakusan Midori-ku Yokohama Kanagawa",
        "Url": "http://tabelog.com/en/kanagawa/A1401/A140207/14044447/",
        "Dishes": 3,
        "Service": 3,
        "Atmosphere": 3,
        "Cost": 3,
        "Drinks": 3,
        "Latitude": 35.5072464,
        "Longitude": 139.5557874
    },
    {
        "Name": "Yakitorinokai",
        "Address": "4-14-41 Tamura Hiratsuka Kanagawa",
        "Url": "http://tabelog.com/en/kanagawa/A1404/A140407/14029515/",
        "Dishes": 3.12,
        "Service": 3.12,
        "Atmosphere": 3.06,
        "Cost": 3.06,
        "Drinks": 3.06,
        "Latitude": 35.3777947,
        "Longitude": 139.3614517
    },
    {
        "Name": "Cafe Vacation",
        "Address": "4-40 Minaminakadori Naka-ku Yokohama Kanagawa",
        "Url": "http://tabelog.com/en/kanagawa/A1401/A140104/14037708/",
        "Dishes": 3.08,
        "Service": 3.05,
        "Atmosphere": 3.02,
        "Cost": 3.05,
        "Drinks": 3.06,
        "Latitude": 35.44886,
        "Longitude": 139.6379337
    },
    {
        "Name": "Torattoriapittsuriarojikku",
        "Address": "2-2-1 Kitasaiwai Nishi-ku Yokohama Kanagawa",
        "Url": "http://tabelog.com/en/kanagawa/A1401/A140101/14021003/",
        "Dishes": 3.54,
        "Service": 3.41,
        "Atmosphere": 3.51,
        "Cost": 3.53,
        "Drinks": 3.32,
        "Latitude": 35.465844,
        "Longitude": 139.6174348
    },
    {
        "Name": "Yarukijaya",
        "Address": "2-3-35 Kizuki Nakahara-ku Kawasaki Kanagawa",
        "Url": "http://tabelog.com/en/kanagawa/A1405/A140504/14021239/",
        "Dishes": 3,
        "Service": 3.02,
        "Atmosphere": 3,
        "Cost": 3.02,
        "Drinks": 3.01,
        "Latitude": 35.5648842,
        "Longitude": 139.6549433
    },
    {
        "Name": "SAINTMARC",
        "Address": "3-10 Sakuranamiki Tsuzuki-ku Yokohama Kanagawa",
        "Url": "http://tabelog.com/en/kanagawa/A1401/A140201/14002280/",
        "Dishes": 3.03,
        "Service": 3,
        "Atmosphere": 3.04,
        "Cost": 3,
        "Drinks": 3,
        "Latitude": 35.5360436,
        "Longitude": 139.5780076
    },
    {
        "Name": "Kaikagetsu",
        "Address": "2-23-8 Tsuruyacho Kanagawa-ku Yokohama Kanagawa",
        "Url": "http://tabelog.com/en/kanagawa/A1401/A140101/14001405/",
        "Dishes": 3.02,
        "Service": 3.01,
        "Atmosphere": 3.02,
        "Cost": 3,
        "Drinks": 3.01,
        "Latitude": 35.4688492,
        "Longitude": 139.6214509
    },
    {
        "Name": "Opumbikkukaferagun",
        "Address": "1-12-4 Katasekaigan Fujisawa Kanagawa",
        "Url": "http://tabelog.com/en/kanagawa/A1404/A140403/14036651/",
        "Dishes": 3.45,
        "Service": 3.19,
        "Atmosphere": 3.39,
        "Cost": 3.51,
        "Drinks": 3.19,
        "Latitude": 35.3078398,
        "Longitude": 139.4858724
    },
    {
        "Name": "Tomathina",
        "Address": "3435 Noborito Tama-ku Kawasaki Kanagawa",
        "Url": "http://tabelog.com/en/kanagawa/A1405/A140506/14010539/",
        "Dishes": 3.3,
        "Service": 2.97,
        "Atmosphere": 2.97,
        "Cost": 3.08,
        "Drinks": 2.99,
        "Latitude": 35.6208085,
        "Longitude": 139.5700873
    },
    {
        "Name": "Okonomimonja",
        "Address": "2-6-7 Minamisaiwai Nishi-ku Yokohama Kanagawa",
        "Url": "http://tabelog.com/en/kanagawa/A1401/A140101/14012817/",
        "Dishes": 3.13,
        "Service": 3.07,
        "Atmosphere": 3.08,
        "Cost": 3.13,
        "Drinks": 3.01,
        "Latitude": 35.4633138,
        "Longitude": 139.618232
    },
    {
        "Name": "Kokonotsuido",
        "Address": "1319-1 Tayacho Sakae-ku Yokohama Kanagawa",
        "Url": "http://tabelog.com/en/kanagawa/A1401/A140309/14000937/",
        "Dishes": 3.77,
        "Service": 3.64,
        "Atmosphere": 4.02,
        "Cost": 3.53,
        "Drinks": 3.52,
        "Latitude": 35.3690655,
        "Longitude": 139.5224912
    },
    {
        "Name": "Himonoya",
        "Address": "14-1 Beniyacho Hiratsuka Kanagawa",
        "Url": "http://tabelog.com/en/kanagawa/A1404/A140407/14052275/",
        "Dishes": 3.07,
        "Service": 2.99,
        "Atmosphere": 3.02,
        "Cost": 3.03,
        "Drinks": 3.07,
        "Latitude": 35.3278778,
        "Longitude": 139.3475657
    },
    {
        "Name": "BONTEN",
        "Address": "1-30-1 Nakagawachuo Tsuzuki-ku Yokohama Kanagawa",
        "Url": "http://tabelog.com/en/kanagawa/A1401/A140203/14053552/",
        "Dishes": 3,
        "Service": 3.04,
        "Atmosphere": 3.01,
        "Cost": 3,
        "Drinks": 3.02,
        "Latitude": 35.5549493,
        "Longitude": 139.5793264
    },
    {
        "Name": "Ichinokura",
        "Address": "1-4-23 Tsunashimanishi Kohoku-ku Yokohama Kanagawa",
        "Url": "http://tabelog.com/en/kanagawa/A1401/A140204/14005776/",
        "Dishes": 3.24,
        "Service": 3.03,
        "Atmosphere": 3.14,
        "Cost": 3.11,
        "Drinks": 3.12,
        "Latitude": 35.5377724,
        "Longitude": 139.6349931
    },
    {
        "Name": "YABIN",
        "Address": "6-36 Kuzugaya Tsuzuki-ku Yokohama Kanagawa",
        "Url": "http://tabelog.com/en/kanagawa/A1401/A140203/14054647/",
        "Dishes": 3,
        "Service": 3.07,
        "Atmosphere": 3.06,
        "Cost": 3.11,
        "Drinks": 3.14,
        "Latitude": 35.5386539,
        "Longitude": 139.5620534
    },
    {
        "Name": "iro",
        "Address": "2-16-6 Tsuruyacho Kanagawa-ku Yokohama Kanagawa",
        "Url": "http://tabelog.com/en/kanagawa/A1401/A140101/14041309/",
        "Dishes": 3,
        "Service": 3,
        "Atmosphere": 3.06,
        "Cost": 3,
        "Drinks": 3,
        "Latitude": 35.4683076,
        "Longitude": 139.6227619
    },
    {
        "Name": "Hokkaidou",
        "Address": "1-403 Kosugimachi Nakahara-ku Kawasaki Kanagawa",
        "Url": "http://tabelog.com/en/kanagawa/A1405/A140504/14047428/",
        "Dishes": 2.99,
        "Service": 2.99,
        "Atmosphere": 3,
        "Cost": 2.99,
        "Drinks": 3,
        "Latitude": 35.5771209,
        "Longitude": 139.6587727
    },
    {
        "Name": "Kaseirou",
        "Address": "186 Yamashitacho Naka-ku Yokohama Kanagawa",
        "Url": "http://tabelog.com/en/kanagawa/A1401/A140105/14000495/",
        "Dishes": 3.63,
        "Service": 3.55,
        "Atmosphere": 3.58,
        "Cost": 3.53,
        "Drinks": 3.39,
        "Latitude": 35.4431606,
        "Longitude": 139.6470833
    },
    {
        "Name": "Wankosobatachibana",
        "Address": "5-13 Hakuraku Kanagawa-ku Yokohama Kanagawa",
        "Url": "http://tabelog.com/en/kanagawa/A1401/A140212/14006331/",
        "Dishes": 3.05,
        "Service": 3.16,
        "Atmosphere": 3.17,
        "Cost": 3.09,
        "Drinks": 3.05,
        "Latitude": 35.4839892,
        "Longitude": 139.6298835
    },
    {
        "Name": "Binchouougiya",
        "Address": "2-4-1 Shinjo Nakahara-ku Kawasaki Kanagawa",
        "Url": "http://tabelog.com/en/kanagawa/A1405/A140504/14014052/",
        "Dishes": 3,
        "Service": 3,
        "Atmosphere": 3,
        "Cost": 3.01,
        "Drinks": 3,
        "Latitude": 35.5836867,
        "Longitude": 139.6313971
    },
    {
        "Name": "Kappazushi",
        "Address": "3002-23 Shimotsuruma Yamato Kanagawa",
        "Url": "http://tabelog.com/en/kanagawa/A1407/A140702/14041098/",
        "Dishes": 2.99,
        "Service": 2.99,
        "Atmosphere": 2.99,
        "Cost": 3,
        "Drinks": 3,
        "Latitude": 35.4989985,
        "Longitude": 139.451719
    },
    {
        "Name": "Kan",
        "Address": "2-7-18 Mizonokuchi Takatsu-ku Kawasaki Kanagawa",
        "Url": "http://tabelog.com/en/kanagawa/A1405/A140505/14013063/",
        "Dishes": 3,
        "Service": 3,
        "Atmosphere": 3.03,
        "Cost": 3.03,
        "Drinks": 3,
        "Latitude": 35.6003537,
        "Longitude": 139.6098207
    },
    {
        "Name": "Shigorokusaikan",
        "Address": "202-1 Yamashitacho Naka-ku Yokohama Kanagawa",
        "Url": "http://tabelog.com/en/kanagawa/A1401/A140105/14002977/",
        "Dishes": 3.44,
        "Service": 3.05,
        "Atmosphere": 3.25,
        "Cost": 3.51,
        "Drinks": 3.17,
        "Latitude": 35.4430412,
        "Longitude": 139.6436002
    },
    {
        "Name": "Kokosu",
        "Address": "1627-1 Nippacho Kohoku-ku Yokohama Kanagawa",
        "Url": "http://tabelog.com/en/kanagawa/A1401/A140206/14040990/",
        "Dishes": 3,
        "Service": 3,
        "Atmosphere": 3,
        "Cost": 3.01,
        "Drinks": 3.01,
        "Latitude": 35.527826,
        "Longitude": 139.6109903
    },
    {
        "Name": "Kaisenizakayashichifukusuisan",
        "Address": "1-8-3 Ofuna Kamakura Kanagawa",
        "Url": "http://tabelog.com/en/kanagawa/A1404/A140401/14028964/",
        "Dishes": 3.11,
        "Service": 3.15,
        "Atmosphere": 3.05,
        "Cost": 3.12,
        "Drinks": 3.1,
        "Latitude": 35.3534964,
        "Longitude": 139.5321075
    },
    {
        "Name": "Houraishunhanten",
        "Address": "2-2 Toyookacho Tsurumi-ku Yokohama Kanagawa",
        "Url": "http://tabelog.com/en/kanagawa/A1401/A140210/14008299/",
        "Dishes": 3.02,
        "Service": 3.05,
        "Atmosphere": 3.03,
        "Cost": 3.03,
        "Drinks": 3,
        "Latitude": 35.5089092,
        "Longitude": 139.6755847
    },
    {
        "Name": "Sakurasuisan",
        "Address": "1-31-2 Tsurumichuo Tsurumi-ku Yokohama Kanagawa",
        "Url": "http://tabelog.com/en/kanagawa/A1401/A140210/14004501/",
        "Dishes": 3,
        "Service": 3,
        "Atmosphere": 3,
        "Cost": 3.03,
        "Drinks": 3.01,
        "Latitude": 35.5070567,
        "Longitude": 139.6767847
    },
    {
        "Name": "icharibal@home",
        "Address": "2-10 Tokiwacho Naka-ku Yokohama Kanagawa",
        "Url": "http://tabelog.com/en/kanagawa/A1401/A140104/14044852/",
        "Dishes": 3.14,
        "Service": 3.14,
        "Atmosphere": 3.09,
        "Cost": 3.13,
        "Drinks": 3.07,
        "Latitude": 35.4453798,
        "Longitude": 139.6380727
    },
    {
        "Name": "Sangendou",
        "Address": "3-2-48 Chuo Ebina Kanagawa",
        "Url": "http://tabelog.com/en/kanagawa/A1408/A140801/14002961/",
        "Dishes": 3,
        "Service": 3,
        "Atmosphere": 3.03,
        "Cost": 3,
        "Drinks": 3,
        "Latitude": 35.4510007,
        "Longitude": 139.3902697
    },
    {
        "Name": "Chikaraya",
        "Address": "2-6-11 Minamisaiwai Nishi-ku Yokohama Kanagawa",
        "Url": "http://tabelog.com/en/kanagawa/A1401/A140101/14007480/",
        "Dishes": 3.15,
        "Service": 3.01,
        "Atmosphere": 3.23,
        "Cost": 3.2,
        "Drinks": 3.15,
        "Latitude": 35.4634082,
        "Longitude": 139.6181932
    },
    {
        "Name": "Kaisendonyakaishuu",
        "Address": "1-14-55 Sakaecho Odawara Kanagawa",
        "Url": "http://tabelog.com/en/kanagawa/A1409/A140901/14042462/",
        "Dishes": 3.24,
        "Service": 3,
        "Atmosphere": 3.01,
        "Cost": 2.96,
        "Drinks": 3,
        "Latitude": 35.2544041,
        "Longitude": 139.1577761
    },
    {
        "Name": "Domadoma",
        "Address": "3-17-3 Hashimoto Midori-ku Sagamihara Kanagawa",
        "Url": "http://tabelog.com/en/kanagawa/A1407/A140701/14035635/",
        "Dishes": 3.01,
        "Service": 3.01,
        "Atmosphere": 3.02,
        "Cost": 3.01,
        "Drinks": 3.02,
        "Latitude": 35.5951806,
        "Longitude": 139.3466699
    },
    {
        "Name": "Gyuukaku",
        "Address": "1-19-17 Hiyoshihoncho Kohoku-ku Yokohama Kanagawa",
        "Url": "http://tabelog.com/en/kanagawa/A1401/A140204/14029547/",
        "Dishes": 3,
        "Service": 3,
        "Atmosphere": 3,
        "Cost": 3,
        "Drinks": 3,
        "Latitude": 35.5534141,
        "Longitude": 139.6453667
    },
    {
        "Name": "Mamma Pasta",
        "Address": "3-6-14 Kyowa Chuo-ku Sagamihara Kanagawa",
        "Url": "http://tabelog.com/en/kanagawa/A1407/A140701/14008829/",
        "Dishes": 3.01,
        "Service": 3.02,
        "Atmosphere": 3.01,
        "Cost": 3.02,
        "Drinks": 3,
        "Latitude": 35.5619099,
        "Longitude": 139.3981773
    },
    {
        "Name": "Bambu",
        "Address": "2-12-1 Shimosakunobe Takatsu-ku Kawasaki Kanagawa",
        "Url": "http://tabelog.com/en/kanagawa/A1405/A140505/14043627/",
        "Dishes": 3.16,
        "Service": 3.1,
        "Atmosphere": 3.12,
        "Cost": 3.17,
        "Drinks": 3.12,
        "Latitude": 35.5986308,
        "Longitude": 139.6080483
    },
    {
        "Name": "Minatoichiya",
        "Address": "2-3-10 Shinyokohama Kohoku-ku Yokohama Kanagawa",
        "Url": "http://tabelog.com/en/kanagawa/A1401/A140206/14037128/",
        "Dishes": 3.08,
        "Service": 3.01,
        "Atmosphere": 3.47,
        "Cost": 3.25,
        "Drinks": 3.2,
        "Latitude": 35.5083391,
        "Longitude": 139.615121
    },
    {
        "Name": "harapekoxtsu",
        "Address": "Utsukushigaoka Aoba-ku Yokohama-city Kanagawa",
        "Url": "http://tabelog.com/en/kanagawa/A1401/A140201/14055757/",
        "Dishes": 3,
        "Service": 3,
        "Atmosphere": 3,
        "Cost": 3,
        "Drinks": 3,
        "Latitude": 35.5885554,
        "Longitude": 139.5453666
    },
    {
        "Name": "Kaseiroushinkan",
        "Address": "164 Yamashitacho Naka-ku Yokohama Kanagawa",
        "Url": "http://tabelog.com/en/kanagawa/A1401/A140105/14000491/",
        "Dishes": 3.5,
        "Service": 3.38,
        "Atmosphere": 3.4,
        "Cost": 3.21,
        "Drinks": 3.09,
        "Latitude": 35.4436939,
        "Longitude": 139.6462889
    },
    {
        "Name": "Warabesaigyodou",
        "Address": "1-5-4 Hayakawa Odawara Kanagawa",
        "Url": "http://tabelog.com/en/kanagawa/A1409/A140901/14004226/",
        "Dishes": 3.61,
        "Service": 3.51,
        "Atmosphere": 3.53,
        "Cost": 3.51,
        "Drinks": 3,
        "Latitude": 35.2408916,
        "Longitude": 139.14855
    },
    {
        "Name": "Nishinoharebare",
        "Address": "4-50-5 Nakasaiwaicho Saiwai-ku Kawasaki Kanagawa",
        "Url": "http://tabelog.com/en/kanagawa/A1405/A140501/14046190/",
        "Dishes": 3.06,
        "Service": 2.99,
        "Atmosphere": 3.06,
        "Cost": 2.98,
        "Drinks": 3.08,
        "Latitude": 35.5317585,
        "Longitude": 139.6926631
    },
    {
        "Name": "Nanashitonkotsuhen",
        "Address": "2-10-7 Isago Kawasaki-ku Kawasaki Kanagawa",
        "Url": "http://tabelog.com/en/kanagawa/A1405/A140501/14003489/",
        "Dishes": 3.41,
        "Service": 3.36,
        "Atmosphere": 3.26,
        "Cost": 3.24,
        "Drinks": 3,
        "Latitude": 35.5296726,
        "Longitude": 139.7011818
    },
    {
        "Name": "Hakkakuan",
        "Address": "2-100-45 Shinyokohama Kohoku-ku Yokohama Kanagawa",
        "Url": "http://tabelog.com/en/kanagawa/A1401/A140206/14012415/",
        "Dishes": 3.5,
        "Service": 3.18,
        "Atmosphere": 3.44,
        "Cost": 3.51,
        "Drinks": 3.21,
        "Latitude": 35.5077891,
        "Longitude": 139.6172846
    },
    {
        "Name": "Sakura",
        "Address": "2-17-1 Tsuruyacho Kanagawa-ku Yokohama Kanagawa",
        "Url": "http://tabelog.com/en/kanagawa/A1401/A140101/14005580/",
        "Dishes": 3.43,
        "Service": 3.18,
        "Atmosphere": 3.22,
        "Cost": 3.13,
        "Drinks": 3.19,
        "Latitude": 35.4682215,
        "Longitude": 139.6222981
    },
    {
        "Name": "Ishibekoujimamecha",
        "Address": "2-16-1 Takashima Nishi-ku Yokohama Kanagawa",
        "Url": "http://tabelog.com/en/kanagawa/A1401/A140101/14001818/",
        "Dishes": 3.26,
        "Service": 3.29,
        "Atmosphere": 3.33,
        "Cost": 2.99,
        "Drinks": 2.98,
        "Latitude": 35.4652635,
        "Longitude": 139.6228481
    },
    {
        "Name": "Bikkuriya",
        "Address": "1-7-4 Ikegamishincho Kawasaki-ku Kawasaki Kanagawa",
        "Url": "http://tabelog.com/en/kanagawa/A1405/A140502/14014602/",
        "Dishes": 3.06,
        "Service": 3,
        "Atmosphere": 3,
        "Cost": 3,
        "Drinks": 3,
        "Latitude": 35.5230568,
        "Longitude": 139.729363
    },
    {
        "Name": "YAKITORI COCCO",
        "Address": "2-1-16 Yamatohigashi Yamato Kanagawa",
        "Url": "http://tabelog.com/en/kanagawa/A1407/A140702/14012358/",
        "Dishes": 3.18,
        "Service": 3.18,
        "Atmosphere": 3.3,
        "Cost": 3.17,
        "Drinks": 3.05,
        "Latitude": 35.4712053,
        "Longitude": 139.4612561
    },
    {
        "Name": "Daifukusuisan",
        "Address": "2-11-10 Kamishinjo Nakahara-ku Kawasaki Kanagawa",
        "Url": "http://tabelog.com/en/kanagawa/A1405/A140504/14039663/",
        "Dishes": 3.05,
        "Service": 3.05,
        "Atmosphere": 3.05,
        "Cost": 3.06,
        "Drinks": 3.03,
        "Latitude": 35.5876222,
        "Longitude": 139.6287971
    },
    {
        "Name": "Yakinikudonyayokohamadaigo",
        "Address": "2-13-11 Tsuruyacho Kanagawa-ku Yokohama Kanagawa",
        "Url": "http://tabelog.com/en/kanagawa/A1401/A140101/14013330/",
        "Dishes": 3.17,
        "Service": 3,
        "Atmosphere": 3,
        "Cost": 3.06,
        "Drinks": 3,
        "Latitude": 35.4685104,
        "Longitude": 139.6231064
    },
    {
        "Name": "Wainshokudougabugabu",
        "Address": "1-5-27 Minamisaiwai Nishi-ku Yokohama Kanagawa",
        "Url": "http://tabelog.com/en/kanagawa/A1401/A140101/14048408/",
        "Dishes": 3.27,
        "Service": 3.13,
        "Atmosphere": 3.23,
        "Cost": 3.43,
        "Drinks": 3.23,
        "Latitude": 35.4644359,
        "Longitude": 139.6199068
    },
    {
        "Name": "Uokatsu",
        "Address": "7-13-23 Zushi Zushi Kanagawa",
        "Url": "http://tabelog.com/en/kanagawa/A1406/A140602/14002852/",
        "Dishes": 3.26,
        "Service": 3.2,
        "Atmosphere": 3.13,
        "Cost": 3.26,
        "Drinks": 3.12,
        "Latitude": 35.2972085,
        "Longitude": 139.5742677
    },
    {
        "Name": "Okabe",
        "Address": "1-748-1 Saiwaicho Saiwai-ku Kawasaki Kanagawa",
        "Url": "http://tabelog.com/en/kanagawa/A1405/A140501/14009481/",
        "Dishes": 3.53,
        "Service": 3.51,
        "Atmosphere": 3.46,
        "Cost": 3.51,
        "Drinks": 3.06,
        "Latitude": 35.5351691,
        "Longitude": 139.698668
    },
    {
        "Name": "Otooto",
        "Address": "72-1 Horikawacho Saiwai-ku Kawasaki Kanagawa",
        "Url": "http://tabelog.com/en/kanagawa/A1405/A140501/14006803/",
        "Dishes": 3.23,
        "Service": 3.03,
        "Atmosphere": 3.26,
        "Cost": 2.99,
        "Drinks": 3.19,
        "Latitude": 35.5325417,
        "Longitude": 139.6967571
    },
    {
        "Name": "Hinchinkaku",
        "Address": "131-12 Yamashitacho Naka-ku Yokohama Kanagawa",
        "Url": "http://tabelog.com/en/kanagawa/A1401/A140105/14036984/",
        "Dishes": 3.18,
        "Service": 3,
        "Atmosphere": 3.08,
        "Cost": 3.54,
        "Drinks": 3.27,
        "Latitude": 35.44195800000001,
        "Longitude": 139.6459557
    },
    {
        "Name": "Rowazoburyuu",
        "Address": "2-13-3 Sagamihara Chuo-ku Sagamihara Kanagawa",
        "Url": "http://tabelog.com/en/kanagawa/A1407/A140701/14008075/",
        "Dishes": 3.19,
        "Service": 3.16,
        "Atmosphere": 3.21,
        "Cost": 3.16,
        "Drinks": 3.08,
        "Latitude": 35.5783249,
        "Longitude": 139.3689489
    },
    {
        "Name": "bistro La Brise",
        "Address": "2-16-5 Katasekaigan Fujisawa Kanagawa",
        "Url": "http://tabelog.com/en/kanagawa/A1404/A140403/14033425/",
        "Dishes": 3.05,
        "Service": 3.05,
        "Atmosphere": 3.05,
        "Cost": 3.08,
        "Drinks": 3.05,
        "Latitude": 35.3086867,
        "Longitude": 139.4826505
    },
    {
        "Name": "Keitokuchin",
        "Address": "190 Yamashitacho Naka-ku Yokohama Kanagawa",
        "Url": "http://tabelog.com/en/kanagawa/A1401/A140105/14000499/",
        "Dishes": 3.59,
        "Service": 3.51,
        "Atmosphere": 3.52,
        "Cost": 3.52,
        "Drinks": 3.36,
        "Latitude": 35.4426024,
        "Longitude": 139.6464862
    },
    {
        "Name": "Yakinikukingu",
        "Address": "2-8-3 Tsukimino Yamato Kanagawa",
        "Url": "http://tabelog.com/en/kanagawa/A1407/A140702/14042455/",
        "Dishes": 3,
        "Service": 3.01,
        "Atmosphere": 3,
        "Cost": 3,
        "Drinks": 3,
        "Latitude": 35.5062639,
        "Longitude": 139.4626653
    },
    {
        "Name": "Kushikatsutanaka",
        "Address": "2-924-8 Shinmarukohigashi Nakahara-ku Kawasaki Kanagawa",
        "Url": "http://tabelog.com/en/kanagawa/A1405/A140504/14041507/",
        "Dishes": 3.11,
        "Service": 3.03,
        "Atmosphere": 2.99,
        "Cost": 3.24,
        "Drinks": 3.08,
        "Latitude": 35.5769626,
        "Longitude": 139.6608114
    },