[
    {
        "Name": "Torattoriapittsuriarojikku",
        "Address": "2-2-1 Kitasaiwai Nishi-ku Yokohama Kanagawa",
        "Url": "http://tabelog.com/en/kanagawa/A1401/A140101/14021003/",
        "Dishes": 3.54,
        "Service": 3.41,
        "Atmosphere": 3.51,
        "Cost": 3.53,
        "Drinks": 3.32,
        "Latitude": 35.465844,
        "Longitude": 139.6174348
    },
    {
        "Name": "NIJYU-MARU",
        "Address": "12-1 Ekimae Honcho Kawasaki-ku Kawasaki Kanagawa",
        "Url": "http://tabelog.com/en/kanagawa/A1405/A140501/14012848/",
        "Dishes": 3.02,
        "Service": 3.01,
        "Atmosphere": 3.01,
        "Cost": 3.04,
        "Drinks": 3,
        "Latitude": 35.53198620000001,
        "Longitude": 139.6985403
    },
    {
        "Name": "YOKOHAMA ASIAN DINING \u0026 BAR",
        "Address": "3-43-4 Wakabacho Naka-ku Yokohama Kanagawa",
        "Url": "http://tabelog.com/en/kanagawa/A1401/A140102/14052259/",
        "Dishes": 3.17,
        "Service": 3.23,
        "Atmosphere": 3.22,
        "Cost": 3.22,
        "Drinks": 3.06,
        "Latitude": 35.4412748,
        "Longitude": 139.6275875
    },
    {
        "Name": "Keifukurou",
        "Address": "190 Yamashitacho Naka-ku Yokohama Kanagawa",
        "Url": "http://tabelog.com/en/kanagawa/A1401/A140105/14030707/",
        "Dishes": 3.1,
        "Service": 3.09,
        "Atmosphere": 3.04,
        "Cost": 3.16,
        "Drinks": 3.1,
        "Latitude": 35.4426024,
        "Longitude": 139.6464862
    },
    {
        "Name": "Cafe \u0026 Kitchen 333",
        "Address": "2-28 Bentendori Naka-ku Yokohama Kanagawa",
        "Url": "http://tabelog.com/en/kanagawa/A1401/A140104/14039032/",
        "Dishes": 3.39,
        "Service": 3.47,
        "Atmosphere": 3.29,
        "Cost": 3.33,
        "Drinks": 3.2,
        "Latitude": 35.4476518,
        "Longitude": 139.6391392
    },
    {
        "Name": "Hyakuten",
        "Address": "1-15-8 Mizonokuchi Takatsu-ku Kawasaki Kanagawa",
        "Url": "http://tabelog.com/en/kanagawa/A1405/A140505/14037400/",
        "Dishes": 3.52,
        "Service": 3.51,
        "Atmosphere": 3.34,
        "Cost": 3.54,
        "Drinks": 3.36,
        "Latitude": 35.6006815,
        "Longitude": 139.6137396
    },
    {
        "Name": "Uotami",
        "Address": "4-14-25 Chuorinkan Yamato Kanagawa",
        "Url": "http://tabelog.com/en/kanagawa/A1407/A140702/14013159/",
        "Dishes": 3,
        "Service": 3,
        "Atmosphere": 3,
        "Cost": 3,
        "Drinks": 3,
        "Latitude": 35.5080078,
        "Longitude": 139.4455886
    },
    {
        "Name": "Watami",
        "Address": "4-2-1 Kamikodanaka Nakahara-ku Kawasaki Kanagawa",
        "Url": "http://tabelog.com/en/kanagawa/A1405/A140504/14013248/",
        "Dishes": 3,
        "Service": 3,
        "Atmosphere": 3,
        "Cost": 3.01,
        "Drinks": 3.01,
        "Latitude": 35.5813758,
        "Longitude": 139.6409824
    },
    {
        "Name": "Binchouougiya",
        "Address": "2-4-1 Shinjo Nakahara-ku Kawasaki Kanagawa",
        "Url": "http://tabelog.com/en/kanagawa/A1405/A140504/14014052/",
        "Dishes": 3,
        "Service": 3,
        "Atmosphere": 3,
        "Cost": 3.01,
        "Drinks": 3,
        "Latitude": 35.5836867,
        "Longitude": 139.6313971
    },
    {
        "Name": "Saizeriya",
        "Address": "1-1-3 Sagamihara Chuo-ku Sagamihara Kanagawa",
        "Url": "http://tabelog.com/en/kanagawa/A1407/A140701/14039132/",
        "Dishes": 3.02,
        "Service": 3.01,
        "Atmosphere": 3.01,
        "Cost": 3.05,
        "Drinks": 3.01,
        "Latitude": 35.5811327,
        "Longitude": 139.3709098
    },
    {
        "Name": "izakayakamadoka",
        "Address": "神奈川県横浜市西区南幸2-15-1",
        "Url": "http://tabelog.com/en/kanagawa/A1401/A140101/14005266/",
        "Dishes": 3.01,
        "Service": 3,
        "Atmosphere": 3,
        "Cost": 3.01,
        "Drinks": 3,
        "Latitude": 35.4647525,
        "Longitude": 139.6187736
    },
    {
        "Name": "Sammaruku",
        "Address": "1-6-1 Kamiookanishi Konan-ku Yokohama Kanagawa",
        "Url": "http://tabelog.com/en/kanagawa/A1401/A140307/14041549/",
        "Dishes": 3,
        "Service": 3.01,
        "Atmosphere": 3,
        "Cost": 2.99,
        "Drinks": 3,
        "Latitude": 35.4072739,
        "Longitude": 139.5961112
    },
    {
        "Name": "Dining\u0026Cafebar Living",
        "Address": "Takashima Nishi-ku Yokohama Kanagawa",
        "Url": "http://tabelog.com/en/kanagawa/A1401/A140101/14055891/",
        "Dishes": 3.06,
        "Service": 3.04,
        "Atmosphere": 3,
        "Cost": 3.04,
        "Drinks": 3,
        "Latitude": 35.4622889,
        "Longitude": 139.6222899
    },
    {
        "Name": "sora",
        "Address": "2-6-2 Minamisaiwai Nishi-ku Yokohama Kanagawa",
        "Url": "http://tabelog.com/en/kanagawa/A1401/A140101/14031555/",
        "Dishes": 2.98,
        "Service": 2.98,
        "Atmosphere": 3,
        "Cost": 2.98,
        "Drinks": 2.98,
        "Latitude": 35.463711,
        "Longitude": 139.6184653
    },
    {
        "Name": "Primodine",
        "Address": "555 Fujisawa Fujisawa Kanagawa",
        "Url": "http://tabelog.com/en/kanagawa/A1404/A140404/14008675/",
        "Dishes": 3.02,
        "Service": 3,
        "Atmosphere": 3,
        "Cost": 3.03,
        "Drinks": 2.99,
        "Latitude": 35.3399174,
        "Longitude": 139.4869807
    },
    {
        "Name": "Issa",
        "Address": "2-1-2 Minamifujisawa Fujisawa Kanagawa",
        "Url": "http://tabelog.com/en/kanagawa/A1404/A140404/14007677/",
        "Dishes": 3,
        "Service": 3.02,
        "Atmosphere": 3.04,
        "Cost": 3,
        "Drinks": 3,
        "Latitude": 35.3384815,
        "Longitude": 139.4888944
    },
    {
        "Name": "Fikodhindhia",
        "Address": "1-24-16 Asahicho Atsugi Kanagawa",
        "Url": "http://tabelog.com/en/kanagawa/A1408/A140802/14032008/",
        "Dishes": 3.59,
        "Service": 3.54,
        "Atmosphere": 3.56,
        "Cost": 3.54,
        "Drinks": 3.51,
        "Latitude": 35.4379825,
        "Longitude": 139.3641915
    },
    {
        "Name": "Torikizoku",
        "Address": "3-32 Masagocho Naka-ku Yokohama Kanagawa",
        "Url": "http://tabelog.com/en/kanagawa/A1401/A140104/14055569/",
        "Dishes": 3.02,
        "Service": 3.02,
        "Atmosphere": 3.01,
        "Cost": 3.04,
        "Drinks": 3.02,
        "Latitude": 35.4452882,
        "Longitude": 139.6358201
    },
    {
        "Name": "Chuukadainingushisenchuubou",
        "Address": "1-25-23 Ofuna Kamakura Kanagawa",
        "Url": "http://tabelog.com/en/kanagawa/A1404/A140401/14033060/",
        "Dishes": 3.37,
        "Service": 3.16,
        "Atmosphere": 3.25,
        "Cost": 3.52,
        "Drinks": 3.12,
        "Latitude": 35.3538158,
        "Longitude": 139.5327769
    },
    {
        "Name": "Yamauchinoujou",
        "Address": "2-15-4 Utsukushigaoka Aoba-ku Yokohama Kanagawa",
        "Url": "http://tabelog.com/en/kanagawa/A1401/A140201/14046138/",
        "Dishes": 3,
        "Service": 3,
        "Atmosphere": 3,
        "Cost": 3,
        "Drinks": 3,
        "Latitude": 35.5793486,
        "Longitude": 139.5584772
    },
    {
        "Name": "Yakinikukingu",
        "Address": "5-29-25 Hino Konan-ku Yokohama Kanagawa",
        "Url": "http://tabelog.com/en/kanagawa/A1401/A140307/14040124/",
        "Dishes": 3.02,
        "Service": 3.07,
        "Atmosphere": 3.07,
        "Cost": 3.06,
        "Drinks": 3.06,
        "Latitude": 35.3926334,
        "Longitude": 139.5831369
    },
    {
        "Name": "Sakanajongarabetanagi",
        "Address": "25 Kamonomiya Odawara Kanagawa",
        "Url": "http://tabelog.com/en/kanagawa/A1409/A140901/14039931/",
        "Dishes": 3.09,
        "Service": 3.05,
        "Atmosphere": 3.07,
        "Cost": 3.01,
        "Drinks": 3.07,
        "Latitude": 35.276352,
        "Longitude": 139.1793332
    },
    {
        "Name": "Furesshunesubaga",
        "Address": "2-5-25 Fujigaoka Aoba-ku Yokohama Kanagawa",
        "Url": "http://tabelog.com/en/kanagawa/A1401/A140202/14032179/",
        "Dishes": 3.02,
        "Service": 3.01,
        "Atmosphere": 3.02,
        "Cost": 3.01,
        "Drinks": 3.02,
        "Latitude": 35.5438919,
        "Longitude": 139.5273135
    },
    {
        "Name": "Jagukafe",
        "Address": "1-21-2 Motomachi Naka-ku Yokohama Kanagawa",
        "Url": "http://tabelog.com/en/kanagawa/A1401/A140105/14006568/",
        "Dishes": 3,
        "Service": 3.07,
        "Atmosphere": 3.06,
        "Cost": 3,
        "Drinks": 3,
        "Latitude": 35.441347,
        "Longitude": 139.6499221
    },
    {
        "Name": "Kimura",
        "Address": "1-6-21 Enoshima Fujisawa Kanagawa",
        "Url": "http://tabelog.com/en/kanagawa/A1404/A140403/14000192/",
        "Dishes": 3.38,
        "Service": 3.11,
        "Atmosphere": 3.12,
        "Cost": 3.14,
        "Drinks": 3,
        "Latitude": 35.3001708,
        "Longitude": 139.4820311
    },
    {
        "Name": "Hiratsukaizawa",
        "Address": "15-4 Beniyacho Hiratsuka Kanagawa",
        "Url": "http://tabelog.com/en/kanagawa/A1404/A140407/14035245/",
        "Dishes": 3.08,
        "Service": 3.01,
        "Atmosphere": 3,
        "Cost": 3,
        "Drinks": 3,
        "Latitude": 35.3282167,
        "Longitude": 139.3466796
    },
    {
        "Name": "Uogashisakabakikkon",
        "Address": "2-15-3 Tsuruyacho Kanagawa-ku Yokohama Kanagawa",
        "Url": "http://tabelog.com/en/kanagawa/A1401/A140101/14031010/",
        "Dishes": 3,
        "Service": 3.01,
        "Atmosphere": 3,
        "Cost": 3.01,
        "Drinks": 3.01,
        "Latitude": 35.4679216,
        "Longitude": 139.6230841
    },
    {
        "Name": "Nagahachi",
        "Address": "8丁目125 Chojamachi Naka-ku Yokohama Kanagawa",
        "Url": "http://tabelog.com/en/kanagawa/A1401/A140104/14015253/",
        "Dishes": 3.33,
        "Service": 3.18,
        "Atmosphere": 3.13,
        "Cost": 3.28,
        "Drinks": 3.19,
        "Latitude": 35.4437328,
        "Longitude": 139.6294567
    },
    {
        "Name": "Hamazushi",
        "Address": "4-31-7 Kizuki Nakahara-ku Kawasaki Kanagawa",
        "Url": "http://tabelog.com/en/kanagawa/A1405/A140504/14050310/",
        "Dishes": 3.02,
        "Service": 3,
        "Atmosphere": 3,
        "Cost": 3.02,
        "Drinks": 3,
        "Latitude": 35.5592325,
        "Longitude": 139.6520937
    },
    {
        "Name": "Yokohamaikasenta",
        "Address": "2-8-21 Minamisaiwai Nishi-ku Yokohama Kanagawa",
        "Url": "http://tabelog.com/en/kanagawa/A1401/A140101/14050853/",
        "Dishes": 3.2,
        "Service": 3.15,
        "Atmosphere": 3,
        "Cost": 3.05,
        "Drinks": 3.06,
        "Latitude": 35.4640804,
        "Longitude": 139.6181931
    },
    {
        "Name": "Sushidaininguwatokousaitamahachi",
        "Address": "599 Kamonomiya Odawara Kanagawa",
        "Url": "http://tabelog.com/en/kanagawa/A1409/A140901/14008044/",
        "Dishes": 3.02,
        "Service": 3.02,
        "Atmosphere": 3.02,
        "Cost": 3.02,
        "Drinks": 3.02,
        "Latitude": 35.2812984,
        "Longitude": 139.1775054
    },
    {
        "Name": "Nambou",
        "Address": "神奈川県横浜市旭区鶴ヶ峰2-3-1",
        "Url": "http://tabelog.com/en/kanagawa/A1401/A140302/14012067/",
        "Dishes": 3.01,
        "Service": 3.01,
        "Atmosphere": 3.01,
        "Cost": 3,
        "Drinks": 3.01,
        "Latitude": 35.475278,
        "Longitude": 139.5464557
    },
    {
        "Name": "Kanazawamaimonsushi",
        "Address": "2-19-3 Utsukushigaoka Aoba-ku Yokohama Kanagawa",
        "Url": "http://tabelog.com/en/kanagawa/A1401/A140201/14001109/",
        "Dishes": 3.55,
        "Service": 3.32,
        "Atmosphere": 3.51,
        "Cost": 3.05,
        "Drinks": 2.99,
        "Latitude": 35.5810289,
        "Longitude": 139.5587965
    },
    {
        "Name": "Mira",
        "Address": "1-23-7 Ofuna Kamakura Kanagawa",
        "Url": "http://tabelog.com/en/kanagawa/A1404/A140401/14056605/",
        "Dishes": 3.07,
        "Service": 3.11,
        "Atmosphere": 3.11,
        "Cost": 3.12,
        "Drinks": 3.02,
        "Latitude": 35.3529492,
        "Longitude": 139.5327297
    },
    {
        "Name": "Hamachou",
        "Address": "4-49-14 Kamariyahigashi Kanazawa-ku Yokohama Kanagawa",
        "Url": "http://tabelog.com/en/kanagawa/A1401/A140310/14000942/",
        "Dishes": 3.09,
        "Service": 3.03,
        "Atmosphere": 3.04,
        "Cost": 3,
        "Drinks": 3.03,
        "Latitude": 35.3461484,
        "Longitude": 139.6097151
    },
    {
        "Name": "Nadaihakonesoba",
        "Address": "8-19 Ekimae Honcho Kawasaki-ku Kawasaki Kanagawa",
        "Url": "http://tabelog.com/en/kanagawa/A1405/A140501/14021600/",
        "Dishes": 3.02,
        "Service": 2.99,
        "Atmosphere": 3,
        "Cost": 3.08,
        "Drinks": 3,
        "Latitude": 35.5314724,
        "Longitude": 139.7003541
    },
    {
        "Name": "Kuraxtsu",
        "Address": "5-62 Sumiyoshicho Naka-ku Yokohama Kanagawa",
        "Url": "http://tabelog.com/en/kanagawa/A1401/A140104/14038081/",
        "Dishes": 3.05,
        "Service": 3.12,
        "Atmosphere": 3.13,
        "Cost": 3.14,
        "Drinks": 3.09,
        "Latitude": 35.4479129,
        "Longitude": 139.6352839
    },
    {
        "Name": "Jakkupottominatomirai",
        "Address": "1-1-7 Sakuragicho Naka-ku Yokohama Kanagawa",
        "Url": "http://tabelog.com/en/kanagawa/A1401/A140102/14035281/",
        "Dishes": 3.3,
        "Service": 3.2,
        "Atmosphere": 3.44,
        "Cost": 3.14,
        "Drinks": 3.12,
        "Latitude": 35.4497142,
        "Longitude": 139.6310632
    },
    {
        "Name": "Kafetosuka",
        "Address": "2-3-7 Minatomirai Nishi-ku Yokohama Kanagawa",
        "Url": "http://tabelog.com/en/kanagawa/A1401/A140103/14000636/",
        "Dishes": 3.56,
        "Service": 3.52,
        "Atmosphere": 3.54,
        "Cost": 3.33,
        "Drinks": 3.29,
        "Latitude": 35.4574484,
        "Longitude": 139.6348484
    },
    {
        "Name": "Kinohana",
        "Address": "1-22-13 Ofuna Kamakura Kanagawa",
        "Url": "http://tabelog.com/en/kanagawa/A1404/A140401/14030689/",
        "Dishes": 3.03,
        "Service": 3.06,
        "Atmosphere": 3.03,
        "Cost": 3.03,
        "Drinks": 3.03,
        "Latitude": 35.3522493,
        "Longitude": 139.5328241
    },
    {
        "Name": "Toujuurou",
        "Address": "4-1 Ogawacho Kawasaki-ku Kawasaki Kanagawa",
        "Url": "http://tabelog.com/en/kanagawa/A1405/A140501/14013351/",
        "Dishes": 3.05,
        "Service": 3,
        "Atmosphere": 3.06,
        "Cost": 3,
        "Drinks": 3,
        "Latitude": 35.5280451,
        "Longitude": 139.6979238
    },
    {
        "Name": "Kotetsu",
        "Address": "3-1-1 Yamatohigashi Yamato Kanagawa",
        "Url": "http://tabelog.com/en/kanagawa/A1407/A140702/14051861/",
        "Dishes": 3.09,
        "Service": 3.09,
        "Atmosphere": 3.09,
        "Cost": 3.05,
        "Drinks": 3.04,
        "Latitude": 35.4711859,
        "Longitude": 139.462331
    },
    {
        "Name": "Pandahanten",
        "Address": "106-1 Yamashitacho Naka-ku Yokohama Kanagawa",
        "Url": "http://tabelog.com/en/kanagawa/A1401/A140105/14040611/",
        "Dishes": 3.37,
        "Service": 3.45,
        "Atmosphere": 3.37,
        "Cost": 3.52,
        "Drinks": 3.15,
        "Latitude": 35.4418469,
        "Longitude": 139.6483389
    },
    {
        "Name": "Arisanjou",
        "Address": "2-2-1 Minatomirai Nishi-ku Yokohama Kanagawa",
        "Url": "http://tabelog.com/en/kanagawa/A1401/A140103/14042668/",
        "Dishes": 3.28,
        "Service": 2.99,
        "Atmosphere": 3.35,
        "Cost": 3.25,
        "Drinks": 3,
        "Latitude": 35.4552397,
        "Longitude": 139.6310839
    },
    {
        "Name": "Koushouki",
        "Address": "97 Yamashitacho Naka-ku Yokohama Kanagawa",
        "Url": "http://tabelog.com/en/kanagawa/A1401/A140105/14032335/",
        "Dishes": 3.22,
        "Service": 3.06,
        "Atmosphere": 3.28,
        "Cost": 3.16,
        "Drinks": 3.01,
        "Latitude": 35.4427274,
        "Longitude": 139.6481472
    },
    {
        "Name": "kawarakafeandodainingu",
        "Address": "7-7 Ekimae Honcho Kawasaki-ku Kawasaki Kanagawa",
        "Url": "http://tabelog.com/en/kanagawa/A1405/A140501/14043059/",
        "Dishes": 3.01,
        "Service": 2.99,
        "Atmosphere": 3.12,
        "Cost": 2.99,
        "Drinks": 3.03,
        "Latitude": 35.5305614,
        "Longitude": 139.6996042
    },
    {
        "Name": "Wataminchi",
        "Address": "2-2-5 Shonandai Fujisawa Kanagawa",
        "Url": "http://tabelog.com/en/kanagawa/A1404/A140405/14014505/",
        "Dishes": 3.01,
        "Service": 3,
        "Atmosphere": 3.01,
        "Cost": 3.01,
        "Drinks": 3,
        "Latitude": 35.3966181,
        "Longitude": 139.465957
    },
    {
        "Name": "Ajinomingei",
        "Address": "6-5-2 Suge Tama-ku Kawasaki Kanagawa",
        "Url": "http://tabelog.com/en/kanagawa/A1405/A140506/14029126/",
        "Dishes": 3.06,
        "Service": 3.06,
        "Atmosphere": 3.05,
        "Cost": 3.03,
        "Drinks": 3.02,
        "Latitude": 35.6382498,
        "Longitude": 139.5239323
    },
    {
        "Name": "Shokusaiwagyuushigekichi",
        "Address": "2-1-3 Fukaminishi Yamato Kanagawa",
        "Url": "http://tabelog.com/en/kanagawa/A1407/A140702/14003476/",
        "Dishes": 3.52,
        "Service": 3.5,
        "Atmosphere": 3.38,
        "Cost": 3.43,
        "Drinks": 3.11,
        "Latitude": 35.4751933,
        "Longitude": 139.4622808
    },
    {
        "Name": "Aruandobi",
        "Address": "3-29 Masagocho Naka-ku Yokohama Kanagawa",
        "Url": "http://tabelog.com/en/kanagawa/A1401/A140104/14021040/",
        "Dishes": 3.56,
        "Service": 3.52,
        "Atmosphere": 3.56,
        "Cost": 3.19,
        "Drinks": 3.16,
        "Latitude": 35.445066,
        "Longitude": 139.6362229
    },
    {
        "Name": "Torikizoku",
        "Address": "1-3-3 Tsurumichuo Tsurumi-ku Yokohama Kanagawa",
        "Url": "http://tabelog.com/en/kanagawa/A1401/A140210/14044403/",
        "Dishes": 3.02,
        "Service": 3.01,
        "Atmosphere": 3.01,
        "Cost": 3.04,
        "Drinks": 3.03,
        "Latitude": 35.5082843,
        "Longitude": 139.677654
    },
    {
        "Name": "Ren",
        "Address": "3-1-18 Yamatohigashi Yamato Kanagawa",
        "Url": "http://tabelog.com/en/kanagawa/A1407/A140702/14013681/",
        "Dishes": 3.07,
        "Service": 3.02,
        "Atmosphere": 3,
        "Cost": 3.02,
        "Drinks": 3.04,
        "Latitude": 35.4712415,
        "Longitude": 139.4625921
    },
    {
        "Name": "Taruzushi",
        "Address": "4-7-19 Honkugenuma Fujisawa Kanagawa",
        "Url": "http://tabelog.com/en/kanagawa/A1404/A140404/14001877/",
        "Dishes": 3.15,
        "Service": 3,
        "Atmosphere": 3.03,
        "Cost": 3.03,
        "Drinks": 3.06,
        "Latitude": 35.3319344,
        "Longitude": 139.4706488
    },
    {
        "Name": "Kagoshimakenkirishimashitsukadanoujou",
        "Address": "539-5 Shinanocho Totsuka-ku Yokohama Kanagawa",
        "Url": "http://tabelog.com/en/kanagawa/A1401/A140305/14056463/",
        "Dishes": 3.17,
        "Service": 3.16,
        "Atmosphere": 3.07,
        "Cost": 3.16,
        "Drinks": 3.16,
        "Latitude": 35.4311169,
        "Longitude": 139.5572412
    },
    {
        "Name": "Yakinikumatsuri",
        "Address": "275-3 Kaminakazatocho Isogo-ku Yokohama Kanagawa",
        "Url": "http://tabelog.com/en/kanagawa/A1401/A140309/14008799/",
        "Dishes": 3,
        "Service": 3.07,
        "Atmosphere": 3.03,
        "Cost": 3.07,
        "Drinks": 3,
        "Latitude": 35.3748917,
        "Longitude": 139.6102816
    },
    {
        "Name": "Kawagoeya",
        "Address": "1-6-19 Komachi Kamakura Kanagawa",
        "Url": "http://tabelog.com/en/kanagawa/A1404/A140402/14001836/",
        "Dishes": 2.99,
        "Service": 2.99,
        "Atmosphere": 2.98,
        "Cost": 2.97,
        "Drinks": 3,
        "Latitude": 35.3194949,
        "Longitude": 139.5511142
    },
    {
        "Name": "Shiruichi",
        "Address": "2-13-11 Tsuruyacho Kanagawa-ku Yokohama Kanagawa",
        "Url": "http://tabelog.com/en/kanagawa/A1401/A140101/14013332/",
        "Dishes": 3.11,
        "Service": 2.99,
        "Atmosphere": 3.03,
        "Cost": 3,
        "Drinks": 3,
        "Latitude": 35.4685104,
        "Longitude": 139.6231064
    },
    {
        "Name": "Taishuusakabatamai",
        "Address": "Takatsu-ku Kawasaki Kanagawa",
        "Url": "http://tabelog.com/en/kanagawa/A1405/A140505/14039459/",
        "Dishes": 3.48,
        "Service": 3.38,
        "Atmosphere": 3.48,
        "Cost": 3.56,
        "Drinks": 3.51,
        "Latitude": 35.5994622,
        "Longitude": 139.6079376
    },
    {
        "Name": "Aisen",
        "Address": "4-2-4 Kouzu Odawara Kanagawa",
        "Url": "http://tabelog.com/en/kanagawa/A1409/A140901/14012783/",
        "Dishes": 3.11,
        "Service": 3.07,
        "Atmosphere": 3.09,
        "Cost": 3.04,
        "Drinks": 3,
        "Latitude": 35.2804658,
        "Longitude": 139.2130345
    },
    {
        "Name": "La Pausa",
        "Address": "1-4-1 Chuo Ebina Kanagawa",
        "Url": "http://tabelog.com/en/kanagawa/A1408/A140801/14005085/",
        "Dishes": 3,
        "Service": 3,
        "Atmosphere": 3,
        "Cost": 3.03,
        "Drinks": 3,
        "Latitude": 35.4519951,
        "Longitude": 139.3935612
    },
    {
        "Name": "Itarianresutoranritorukyatto",
        "Address": "3-29-1 Tsuruyacho Kanagawa-ku Yokohama Kanagawa",
        "Url": "http://tabelog.com/en/kanagawa/A1401/A140101/14006553/",
        "Dishes": 3.02,
        "Service": 3.01,
        "Atmosphere": 3,
        "Cost": 3.06,
        "Drinks": 3.03,
        "Latitude": 35.469302,
        "Longitude": 139.6195873
    },
    {
        "Name": "Tokufuku",
        "Address": "7 Ekimae Honcho Kawasaki-ku Kawasaki Kanagawa",
        "Url": "http://tabelog.com/en/kanagawa/A1405/A140501/14039838/",
        "Dishes": 3.51,
        "Service": 3.09,
        "Atmosphere": 3.07,
        "Cost": 2.91,
        "Drinks": 3.02,
        "Latitude": 35.5305614,
        "Longitude": 139.6996042
    },
    {
        "Name": "Mampukudaihanten",
        "Address": "1-10-3 Isago Kawasaki-ku Kawasaki Kanagawa",
        "Url": "http://tabelog.com/en/kanagawa/A1405/A140501/14010463/",
        "Dishes": 2.99,
        "Service": 2.99,
        "Atmosphere": 3,
        "Cost": 3,
        "Drinks": 3,
        "Latitude": 35.5309502,
        "Longitude": 139.7025233
    },
    {
        "Name": "Yui",
        "Address": "3-10-8 Fujigaoka Fujisawa Kanagawa",
        "Url": "http://tabelog.com/en/kanagawa/A1404/A140404/14048171/",
        "Dishes": 3.54,
        "Service": 3.54,
        "Atmosphere": 3.51,
        "Cost": 3.56,
        "Drinks": 3,
        "Latitude": 35.3487581,
        "Longitude": 139.4954049
    },
    {
        "Name": "Kagura",
        "Address": "2-23-4 Miyagawacho Naka-ku Yokohama Kanagawa",
        "Url": "http://tabelog.com/en/kanagawa/A1401/A140102/14054945/",
        "Dishes": 3.25,
        "Service": 3.17,
        "Atmosphere": 3.27,
        "Cost": 3.1,
        "Drinks": 3.12,
        "Latitude": 35.4469546,
        "Longitude": 139.6292483
    },
    {
        "Name": "Kotekichi",
        "Address": "1-1-7 Sakuragicho Naka-ku Yokohama Kanagawa",
        "Url": "http://tabelog.com/en/kanagawa/A1401/A140102/14035102/",
        "Dishes": 3.05,
        "Service": 3,
        "Atmosphere": 3.01,
        "Cost": 2.97,
        "Drinks": 2.99,
        "Latitude": 35.4497142,
        "Longitude": 139.6310632
    },
    {
        "Name": "Torattoriavento",
        "Address": "2-2-1 Minatomirai Nishi-ku Yokohama Kanagawa",
        "Url": "http://tabelog.com/en/kanagawa/A1401/A140103/14004854/",
        "Dishes": 3.03,
        "Service": 3.15,
        "Atmosphere": 3.22,
        "Cost": 2.98,
        "Drinks": 3.09,
        "Latitude": 35.4552397,
        "Longitude": 139.6310839
    },
    {
        "Name": "Tsunashimanokushiyayokochou",
        "Address": "1-4-23 Tsunashimanishi Kohoku-ku Yokohama Kanagawa",
        "Url": "http://tabelog.com/en/kanagawa/A1401/A140204/14052580/",
        "Dishes": 3.07,
        "Service": 3.02,
        "Atmosphere": 3.01,
        "Cost": 3,
        "Drinks": 3.02,
        "Latitude": 35.5377724,
        "Longitude": 139.6349931
    },
    {
        "Name": "FRESHNESS BURGER",
        "Address": "神奈川県横浜市都筑区茅ヶ崎中央6-1",
        "Url": "http://tabelog.com/en/kanagawa/A1401/A140203/14052778/",
        "Dishes": 3,
        "Service": 3,
        "Atmosphere": 3,
        "Cost": 3.02,
        "Drinks": 3,
        "Latitude": 35.5439813,
        "Longitude": 139.5744244
    },
    {
        "Name": "Numaduuogashizushi",
        "Address": "2-2-1 Minatomirai Nishi-ku Yokohama Kanagawa",
        "Url": "http://tabelog.com/en/kanagawa/A1401/A140103/14001747/",
        "Dishes": 3.21,
        "Service": 3.14,
        "Atmosphere": 3.13,
        "Cost": 3.1,
        "Drinks": 3.1,
        "Latitude": 35.4552397,
        "Longitude": 139.6310839
    },
    {
        "Name": "Totopoppo",
        "Address": "2-11-20 Isago Kawasaki-ku Kawasaki Kanagawa",
        "Url": "http://tabelog.com/en/kanagawa/A1405/A140501/14052108/",
        "Dishes": 3.05,
        "Service": 3.04,
        "Atmosphere": 3.03,
        "Cost": 3.02,
        "Drinks": 3,
        "Latitude": 35.5299087,
        "Longitude": 139.7017457
    },
    {
        "Name": "Watami",
        "Address": "481-1 Kamikuratacho Totsuka-ku Yokohama Kanagawa",
        "Url": "http://tabelog.com/en/kanagawa/A1401/A140305/14051822/",
        "Dishes": 3.09,
        "Service": 3.03,
        "Atmosphere": 3.02,
        "Cost": 3.13,
        "Drinks": 3.07,
        "Latitude": 35.3993043,
        "Longitude": 139.536135
    },
    {
        "Name": "Kyouobanzaikamerin",
        "Address": "3-43-2 Urafunecho Minami-ku Yokohama Kanagawa",
        "Url": "http://tabelog.com/en/kanagawa/A1401/A140306/14056802/",
        "Dishes": 3.09,
        "Service": 3,
        "Atmosphere": 3.06,
        "Cost": 3.06,
        "Drinks": 3.06,
        "Latitude": 35.4343173,
        "Longitude": 139.6268294
    },
    {
        "Name": "Kankanshouten",
        "Address": "6-23-8 Kamikodanaka Nakahara-ku Kawasaki Kanagawa",
        "Url": "http://tabelog.com/en/kanagawa/A1405/A140504/14005280/",
        "Dishes": 3.02,
        "Service": 3.02,
        "Atmosphere": 3.03,
        "Cost": 3.03,
        "Drinks": 3.03,
        "Latitude": 35.5808176,
        "Longitude": 139.6429211
    },
    {
        "Name": "mankinrou",
        "Address": "横浜市中区山下町149",
        "Url": "http://tabelog.com/en/kanagawa/A1401/A140105/14054747/",
        "Dishes": 3,
        "Service": 3,
        "Atmosphere": 3,
        "Cost": 3,
        "Drinks": 3,
        "Latitude": 35.4436523,
        "Longitude": 139.6459251
    },
    {
        "Name": "Saizeriya",
        "Address": "1-18-5 Kamiookanishi Konan-ku Yokohama Kanagawa",
        "Url": "http://tabelog.com/en/kanagawa/A1401/A140307/14036090/",
        "Dishes": 3.01,
        "Service": 3,
        "Atmosphere": 3,
        "Cost": 3.02,
        "Drinks": 3,
        "Latitude": 35.4072873,
        "Longitude": 139.5949495
    },
    {
        "Name": "Shouya",
        "Address": "2-5-16 Shinyokohama Kohoku-ku Yokohama Kanagawa",
        "Url": "http://tabelog.com/en/kanagawa/A1401/A140206/14035251/",
        "Dishes": 3.01,
        "Service": 3,
        "Atmosphere": 3.02,
        "Cost": 3.01,
        "Drinks": 3,
        "Latitude": 35.5092029,
        "Longitude": 139.6155375
    },
    {
        "Name": "Sumibitoriyakiyatamai",
        "Address": "2-3-7 Mizonokuchi Takatsu-ku Kawasaki Kanagawa",
        "Url": "http://tabelog.com/en/kanagawa/A1405/A140505/14004470/",
        "Dishes": 3.43,
        "Service": 3.04,
        "Atmosphere": 3.18,
        "Cost": 3.47,
        "Drinks": 3.13,
        "Latitude": 35.5995566,
        "Longitude": 139.6096652
    },
    {
        "Name": "Taishougun",
        "Address": "5-17 Ogawacho Kawasaki-ku Kawasaki Kanagawa",
        "Url": "http://tabelog.com/en/kanagawa/A1405/A140501/14000825/",
        "Dishes": 3.31,
        "Service": 2.99,
        "Atmosphere": 3.22,
        "Cost": 3.15,
        "Drinks": 3.16,
        "Latitude": 35.5280562,
        "Longitude": 139.6969767
    },
    {
        "Name": "Amalfi NOVELLO",
        "Address": "2-100-45 Shinyokohama Kohoku-ku Yokohama Kanagawa",
        "Url": "http://tabelog.com/en/kanagawa/A1401/A140206/14011820/",
        "Dishes": 3.51,
        "Service": 3.51,
        "Atmosphere": 3.55,
        "Cost": 3.25,
        "Drinks": 3.5,
        "Latitude": 35.5077891,
        "Longitude": 139.6172846
    },
    {
        "Name": "Verubowa",
        "Address": "80 Motohakone Hakone Ashigarashimo-gun Kanagawa",
        "Url": "http://tabelog.com/en/kanagawa/A1410/A141001/14001427/",
        "Dishes": 3.53,
        "Service": 3.54,
        "Atmosphere": 3.55,
        "Cost": 3.51,
        "Drinks": 3.43,
        "Latitude": 35.2037097,
        "Longitude": 139.0230356
    },
    {
        "Name": "Uogashinihonichi",
        "Address": "5-1 Chigasakichuo Tsuzuki-ku Yokohama Kanagawa",
        "Url": "http://tabelog.com/en/kanagawa/A1401/A140203/14002846/",
        "Dishes": 3,
        "Service": 3,
        "Atmosphere": 3,
        "Cost": 3,
        "Drinks": 3,
        "Latitude": 35.5444257,
        "Longitude": 139.5724217
    },
    {
        "Name": "Hokkaidou",
        "Address": "1-4-1 Kitasaiwai Nishi-ku Yokohama Kanagawa",
        "Url": "http://tabelog.com/en/kanagawa/A1401/A140101/14022383/",
        "Dishes": 3.06,
        "Service": 3,
        "Atmosphere": 3.06,
        "Cost": 3.05,
        "Drinks": 3,
        "Latitude": 35.4672994,
        "Longitude": 139.6195734
    },
    {
        "Name": "Izakayaramakku",
        "Address": "1-5 Kamiookanishi Konan-ku Yokohama Kanagawa",
        "Url": "http://tabelog.com/en/kanagawa/A1401/A140307/14056922/",
        "Dishes": 3.05,
        "Service": 3.05,
        "Atmosphere": 3.05,
        "Cost": 3.05,
        "Drinks": 3.05,
        "Latitude": 35.4107213,
        "Longitude": 139.5958623
    },
    {
        "Name": "Tetsu",
        "Address": "1-5 Odakicho Yokosuka Kanagawa",
        "Url": "http://tabelog.com/en/kanagawa/A1406/A140601/14007462/",
        "Dishes": 3.02,
        "Service": 3,
        "Atmosphere": 3.01,
        "Cost": 3.02,
        "Drinks": 3.01,
        "Latitude": 35.2825078,
        "Longitude": 139.6683092
    },
    {
        "Name": "Uotami",
        "Address": "3-417 Kosugimachi Nakahara-ku Kawasaki Kanagawa",
        "Url": "http://tabelog.com/en/kanagawa/A1405/A140504/14042465/",
        "Dishes": 3,
        "Service": 3,
        "Atmosphere": 3,
        "Cost": 3,
        "Drinks": 3,
        "Latitude": 35.5758545,
        "Longitude": 139.6583923
    },
    {
        "Name": "Shisaidoparasoru",
        "Address": "1-12-7 Katasekaigan Fujisawa Kanagawa",
        "Url": "http://tabelog.com/en/kanagawa/A1404/A140403/14029048/",
        "Dishes": 3.25,
        "Service": 3.37,
        "Atmosphere": 3.27,
        "Cost": 3.14,
        "Drinks": 3.02,
        "Latitude": 35.3079037,
        "Longitude": 139.4861613
    },
    {
        "Name": "Tokori",
        "Address": "1-1-7 Sakuragicho Naka-ku Yokohama Kanagawa",
        "Url": "http://tabelog.com/en/kanagawa/A1401/A140102/14035103/",
        "Dishes": 3.39,
        "Service": 3.17,
        "Atmosphere": 3.38,
        "Cost": 3.04,
        "Drinks": 3.01,
        "Latitude": 35.4497142,
        "Longitude": 139.6310632
    },
    {
        "Name": "Yunaiteddomitobaru",
        "Address": "4000-1 Totsukacho Totsuka-ku Yokohama Kanagawa",
        "Url": "http://tabelog.com/en/kanagawa/A1401/A140305/14057815/",
        "Dishes": 3.1,
        "Service": 3.11,
        "Atmosphere": 3.1,
        "Cost": 3.08,
        "Drinks": 3.04,
        "Latitude": 35.3987709,
        "Longitude": 139.5315325
    },
    {
        "Name": "Roiyaruhosuto",
        "Address": "1-8-7 Sahara Yokosuka Kanagawa",
        "Url": "http://tabelog.com/en/kanagawa/A1406/A140601/14038885/",
        "Dishes": 3.02,
        "Service": 3.01,
        "Atmosphere": 3.01,
        "Cost": 3.02,
        "Drinks": 3.01,
        "Latitude": 35.2418366,
        "Longitude": 139.6795328
    },
    {
        "Name": "Fukueimon",
        "Address": "1-7-11 Tsurumichuo Tsurumi-ku Yokohama Kanagawa",
        "Url": "http://tabelog.com/en/kanagawa/A1401/A140210/14000702/",
        "Dishes": 3.44,
        "Service": 3.27,
        "Atmosphere": 3.21,
        "Cost": 3.49,
        "Drinks": 3.09,
        "Latitude": 35.5088759,
        "Longitude": 139.6775679
    },
    {
        "Name": "Sandglass cafe",
        "Address": "1-8-1 Chuo Ebina Kanagawa",
        "Url": "http://tabelog.com/en/kanagawa/A1408/A140801/14006701/",
        "Dishes": 3.35,
        "Service": 3.24,
        "Atmosphere": 3.32,
        "Cost": 3.3,
        "Drinks": 3.16,
        "Latitude": 35.4536087,
        "Longitude": 139.3926584
    },
    {
        "Name": "Irohanihoheto",
        "Address": "1-4-14 Yamatohigashi Yamato Kanagawa",
        "Url": "http://tabelog.com/en/kanagawa/A1407/A140702/14012751/",
        "Dishes": 3,
        "Service": 3,
        "Atmosphere": 3,
        "Cost": 3,
        "Drinks": 3,
        "Latitude": 35.4705194,
        "Longitude": 139.4626922
    },
    {
        "Name": "Domareshounan",
        "Address": "10-3 Ekimae Honcho Kawasaki-ku Kawasaki Kanagawa",
        "Url": "http://tabelog.com/en/kanagawa/A1405/A140501/14006834/",
        "Dishes": 3.14,
        "Service": 3.17,
        "Atmosphere": 3.16,
        "Cost": 3.19,
        "Drinks": 3.24,
        "Latitude": 35.53203060000001,
        "Longitude": 139.6991986
    },
    {
        "Name": "Takebou",
        "Address": "2-3-12 Isago Kawasaki-ku Kawasaki Kanagawa",
        "Url": "http://tabelog.com/en/kanagawa/A1405/A140501/14007190/",
        "Dishes": 3.08,
        "Service": 3.07,
        "Atmosphere": 3.05,
        "Cost": 3.06,
        "Drinks": 3.06,
        "Latitude": 35.5301114,
        "Longitude": 139.7000708
    },
    {
        "Name": "Sushimasa",
        "Address": "1-3-50 Nishisakawa Odawara Kanagawa",
        "Url": "http://tabelog.com/en/kanagawa/A1409/A140901/14015445/",
        "Dishes": 3.07,
        "Service": 3.04,
        "Atmosphere": 3.04,
        "Cost": 3.01,
        "Drinks": 3,
        "Latitude": 35.2658673,
        "Longitude": 139.1817781
    },
    {
        "Name": "Sammaruku",
        "Address": "47-13 Shibacho Kanazawa-ku Yokohama Kanagawa",
        "Url": "http://tabelog.com/en/kanagawa/A1401/A140310/14004689/",
        "Dishes": 3.01,
        "Service": 3.01,
        "Atmosphere": 3.03,
        "Cost": 3,
        "Drinks": 3,
        "Latitude": 35.34330509999999,
        "Longitude": 139.636621
    },
    {
        "Name": "Yuusuishokuichibasei",
        "Address": "4328 Ikonobecho Tsuzuki-ku Yokohama Kanagawa",
        "Url": "http://tabelog.com/en/kanagawa/A1401/A140207/14007408/",
        "Dishes": 3.01,
        "Service": 3.01,
        "Atmosphere": 3.01,
        "Cost": 3.02,
        "Drinks": 3,
        "Latitude": 35.513907,
        "Longitude": 139.5648173
    },
    {
        "Name": "Fujimaru",
        "Address": "2-7-2 Sakaecho Odawara Kanagawa",
        "Url": "http://tabelog.com/en/kanagawa/A1409/A140901/14012439/",
        "Dishes": 3.1,
        "Service": 3.01,
        "Atmosphere": 3,
        "Cost": 3.26,
        "Drinks": 3.01,
        "Latitude": 35.2557827,
        "Longitude": 139.1576686
    },
    {
        "Name": "Kushikatsutanaka",
        "Address": "2-1-1 Nakacho Atsugi Kanagawa",
        "Url": "http://tabelog.com/en/kanagawa/A1408/A140802/14049685/",
        "Dishes": 3.11,
        "Service": 3.02,
        "Atmosphere": 3.04,
        "Cost": 3.12,
        "Drinks": 3.09,
        "Latitude": 35.4390074,
        "Longitude": 139.3635443
    },
    {
        "Name": "Onikunokuni",
        "Address": "Takashima Nishi-ku Yokohama Kanagawa",
        "Url": "http://tabelog.com/en/kanagawa/A1401/A140101/14058676/",
        "Dishes": 3.18,
        "Service": 3,
        "Atmosphere": 3.12,
        "Cost": 3.18,
        "Drinks": 3.18,
        "Latitude": 35.4622889,
        "Longitude": 139.6222899
    },
    {
        "Name": "Teppanyakiresutoranoku",
        "Address": "3-18-1 Shinyokohama Kohoku-ku Yokohama Kanagawa",
        "Url": "http://tabelog.com/en/kanagawa/A1401/A140206/14007319/",
        "Dishes": 3.54,
        "Service": 3.52,
        "Atmosphere": 3.52,
        "Cost": 3.56,
        "Drinks": 3.3,
        "Latitude": 35.5099695,
        "Longitude": 139.6167041
    },
    {
        "Name": "Yadaizushi",
        "Address": "18-14 Matsugaecho Minami-ku Sagamihara Kanagawa",
        "Url": "http://tabelog.com/en/kanagawa/A1407/A140701/14029954/",
        "Dishes": 3,
        "Service": 3,
        "Atmosphere": 3,
        "Cost": 3,
        "Drinks": 3,
        "Latitude": 35.5157065,
        "Longitude": 139.4241736
    },
    {
        "Name": "484cafe",
        "Address": "484 Fujisawa Fujisawa Kanagawa",
        "Url": "http://tabelog.com/en/kanagawa/A1404/A140404/14057822/",
        "Dishes": 3.01,
        "Service": 3.13,
        "Atmosphere": 3.11,
        "Cost": 2.99,
        "Drinks": 3.07,
        "Latitude": 35.3403396,
        "Longitude": 139.4857836
    },
    {
        "Name": "Yanawaraba",
        "Address": "1-12-14 Mizonokuchi Takatsu-ku Kawasaki Kanagawa",
        "Url": "http://tabelog.com/en/kanagawa/A1405/A140505/14021138/",
        "Dishes": 3.07,
        "Service": 3.07,
        "Atmosphere": 3.07,
        "Cost": 3.04,
        "Drinks": 3.13,
        "Latitude": 35.6003954,
        "Longitude": 139.6131064
    },
    {
        "Name": "Kurachi",
        "Address": "2-13-2 Tsuruyacho Kanagawa-ku Yokohama Kanagawa",
        "Url": "http://tabelog.com/en/kanagawa/A1401/A140101/14002225/",
        "Dishes": 3.27,
        "Service": 3.15,
        "Atmosphere": 3.15,
        "Cost": 3,
        "Drinks": 3.03,
        "Latitude": 35.468527,
        "Longitude": 139.6233036
    },
    {
        "Name": "Kokuryuu",
        "Address": "2-16-1 Utsukushigaoka Aoba-ku Yokohama Kanagawa",
        "Url": "http://tabelog.com/en/kanagawa/A1401/A140201/14002942/",
        "Dishes": 3.14,
        "Service": 3.12,
        "Atmosphere": 3.04,
        "Cost": 3.18,
        "Drinks": 3.04,
        "Latitude": 35.5793375,
        "Longitude": 139.5590744
    },
    {
        "Name": "Kisoji",
        "Address": "1-4-18 Kawana Fujisawa Kanagawa",
        "Url": "http://tabelog.com/en/kanagawa/A1404/A140404/14041651/",
        "Dishes": 3.09,
        "Service": 3.12,
        "Atmosphere": 3.1,
        "Cost": 3.03,
        "Drinks": 3.04,
        "Latitude": 35.3347847,
        "Longitude": 139.4945383
    },
    {
        "Name": "Saizeriya",
        "Address": "6-1-1 Ofuna Kamakura Kanagawa",
        "Url": "http://tabelog.com/en/kanagawa/A1404/A140401/14036249/",
        "Dishes": 3,
        "Service": 3,
        "Atmosphere": 3,
        "Cost": 3.01,
        "Drinks": 3,
        "Latitude": 35.354113,
        "Longitude": 139.5383099
    },
    {
        "Name": "Sushizammai",
        "Address": "2-3-19 Isago Kawasaki-ku Kawasaki Kanagawa",
        "Url": "http://tabelog.com/en/kanagawa/A1405/A140501/14042751/",
        "Dishes": 3.02,
        "Service": 3.03,
        "Atmosphere": 3.01,
        "Cost": 3,
        "Drinks": 3,
        "Latitude": 35.5300031,
        "Longitude": 139.7002402
    },
    {
        "Name": "Yasohachi",
        "Address": "2-81-36 Ishikawacho Naka-ku Yokohama Kanagawa",
        "Url": "http://tabelog.com/en/kanagawa/A1401/A140105/14049771/",
        "Dishes": 3.53,
        "Service": 3.56,
        "Atmosphere": 3.56,
        "Cost": 3.52,
        "Drinks": 3.51,
        "Latitude": 35.437553,
        "Longitude": 139.6430728
    },
    {
        "Name": "FRESHNESS BURGER",
        "Address": "2-5-3 Kizuki Nakahara-ku Kawasaki Kanagawa",
        "Url": "http://tabelog.com/en/kanagawa/A1405/A140504/14045459/",
        "Dishes": 3,
        "Service": 3,
        "Atmosphere": 3,
        "Cost": 3,
        "Drinks": 3.02,
        "Latitude": 35.5647176,
        "Longitude": 139.6548738
    },
    {
        "Name": "Shirokiya",
        "Address": "1-12-18 Mizonokuchi Takatsu-ku Kawasaki Kanagawa",
        "Url": "http://tabelog.com/en/kanagawa/A1405/A140505/14041017/",
        "Dishes": 3,
        "Service": 3,
        "Atmosphere": 3,
        "Cost": 3,
        "Drinks": 3,
        "Latitude": 35.6003537,
        "Longitude": 139.6134064
    },
    {
        "Name": "Shirokiya",
        "Address": "1-36 Hanasakicho Naka-ku Yokohama Kanagawa",
        "Url": "http://tabelog.com/en/kanagawa/A1401/A140102/14022374/",
        "Dishes": 3.03,
        "Service": 3,
        "Atmosphere": 3.02,
        "Cost": 3.05,
        "Drinks": 3.03,
        "Latitude": 35.4493321,
        "Longitude": 139.6306231
    },
    {
        "Name": "Azur",
        "Address": "1-1-1 Minatomirai Nishi-ku Yokohama Kanagawa",
        "Url": "http://tabelog.com/en/kanagawa/A1401/A140103/14000627/",
        "Dishes": 3.5,
        "Service": 3.43,
        "Atmosphere": 3.55,
        "Cost": 3.05,
        "Drinks": 3.19,
        "Latitude": 35.4587199,
        "Longitude": 139.635714
    },
    {
        "Name": "Sennennoutage",
        "Address": "1-17-1 Manpukuji Asao-ku Kawasaki Kanagawa",
        "Url": "http://tabelog.com/en/kanagawa/A1405/A140508/14008316/",
        "Dishes": 3,
        "Service": 3,
        "Atmosphere": 3,
        "Cost": 3,
        "Drinks": 3,
        "Latitude": 35.604455,
        "Longitude": 139.5075771
    },
    {
        "Name": "Ooshima",
        "Address": "2-3-7 Minatomirai Nishi-ku Yokohama Kanagawa",
        "Url": "http://tabelog.com/en/kanagawa/A1401/A140103/14001860/",
        "Dishes": 3.2,
        "Service": 3.14,
        "Atmosphere": 3.19,
        "Cost": 3.13,
        "Drinks": 3.03,
        "Latitude": 35.4574484,
        "Longitude": 139.6348484
    },
    {
        "Name": "Amiyakitei",
        "Address": "3-2-2 Miharucho Yokosuka Kanagawa",
        "Url": "http://tabelog.com/en/kanagawa/A1406/A140601/14034939/",
        "Dishes": 3.01,
        "Service": 3,
        "Atmosphere": 3,
        "Cost": 3.01,
        "Drinks": 3.01,
        "Latitude": 35.2658893,
        "Longitude": 139.6888569
    },
    {
        "Name": "Bashamichinohimonoya",
        "Address": "4-43 Masagocho Naka-ku Yokohama Kanagawa",
        "Url": "http://tabelog.com/en/kanagawa/A1401/A140104/14003342/",
        "Dishes": 3.02,
        "Service": 3.01,
        "Atmosphere": 3.01,
        "Cost": 3.01,
        "Drinks": 3,
        "Latitude": 35.4457687,
        "Longitude": 139.6350812
    },
    {
        "Name": "Shouya",
        "Address": "1-17-26 Kamiookanishi Konan-ku Yokohama Kanagawa",
        "Url": "http://tabelog.com/en/kanagawa/A1401/A140307/14022362/",
        "Dishes": 3.02,
        "Service": 3.02,
        "Atmosphere": 3.02,
        "Cost": 3.02,
        "Drinks": 3.02,
        "Latitude": 35.4084927,
        "Longitude": 139.5948634
    },
    {
        "Name": "Ekohiiki",
        "Address": "3-33 Masagocho Naka-ku Yokohama Kanagawa",
        "Url": "http://tabelog.com/en/kanagawa/A1401/A140104/14036825/",
        "Dishes": 3.05,
        "Service": 3.05,
        "Atmosphere": 3.05,
        "Cost": 3.06,
        "Drinks": 3.05,
        "Latitude": 35.445141,
        "Longitude": 139.6355785
    },
    {
        "Name": "Kouan",
        "Address": "神奈川県横浜市中区常磐町5-62-3F",
        "Url": "http://tabelog.com/en/kanagawa/A1401/A140104/14049349/",
        "Dishes": 3.03,
        "Service": 3.08,
        "Atmosphere": 3.13,
        "Cost": 3,
        "Drinks": 3,
        "Latitude": 35.4446993,
        "Longitude": 139.642178
    },
    {
        "Name": "YAKITORI COCCO",
        "Address": "2-1-16 Yamatohigashi Yamato Kanagawa",
        "Url": "http://tabelog.com/en/kanagawa/A1407/A140702/14012358/",
        "Dishes": 3.18,
        "Service": 3.18,
        "Atmosphere": 3.3,
        "Cost": 3.17,
        "Drinks": 3.05,
        "Latitude": 35.4712053,
        "Longitude": 139.4612561
    },
    {
        "Name": "Sangendou",
        "Address": "1-11-23 Ofuna Kamakura Kanagawa",
        "Url": "http://tabelog.com/en/kanagawa/A1404/A140401/14005587/",
        "Dishes": 3.02,
        "Service": 3.02,
        "Atmosphere": 3.02,
        "Cost": 3.02,
        "Drinks": 3.02,
        "Latitude": 35.3521521,
        "Longitude": 139.5317658
    },
    {
        "Name": "Restaurant NORI et NOJI",
        "Address": "2-5-18 Kugenumakaigan Fujisawa Kanagawa",
        "Url": "http://tabelog.com/en/kanagawa/A1404/A140403/14051291/",
        "Dishes": 3.13,
        "Service": 3.13,
        "Atmosphere": 3.1,
        "Cost": 3.12,
        "Drinks": 3.03,
        "Latitude": 35.3205269,
        "Longitude": 139.47026
    },
    {
        "Name": "Mukunomitei",
        "Address": "2072 Ikonobecho Tsuzuki-ku Yokohama Kanagawa",
        "Url": "http://tabelog.com/en/kanagawa/A1401/A140203/14000705/",
        "Dishes": 3.23,
        "Service": 3.07,
        "Atmosphere": 3.5,
        "Cost": 3.28,
        "Drinks": 3.13,
        "Latitude": 35.5273695,
        "Longitude": 139.5714417
    },
    {
        "Name": "Zawatami",
        "Address": "1-11-6 Saginuma Miyamae-ku Kawasaki Kanagawa",
        "Url": "http://tabelog.com/en/kanagawa/A1405/A140507/14013072/",
        "Dishes": 3,
        "Service": 3,
        "Atmosphere": 3,
        "Cost": 3,
        "Drinks": 3,
        "Latitude": 35.5780876,
        "Longitude": 139.5729399
    },
    {
        "Name": "supaisupurasu",
        "Address": "横浜市保土ヶ谷区神戸町134",
        "Url": "http://tabelog.com/en/kanagawa/A1401/A140301/14055091/",
        "Dishes": 3.09,
        "Service": 3.05,
        "Atmosphere": 3.2,
        "Cost": 3.07,
        "Drinks": 3.1,
        "Latitude": 35.4538705,
        "Longitude": 139.5977515
    },
    {
        "Name": "Aburiya",
        "Address": "2-3-10 Shinyokohama Kohoku-ku Yokohama Kanagawa",
        "Url": "http://tabelog.com/en/kanagawa/A1401/A140206/14030259/",
        "Dishes": 3.02,
        "Service": 3,
        "Atmosphere": 3,
        "Cost": 3.02,
        "Drinks": 3.01,
        "Latitude": 35.5083391,
        "Longitude": 139.615121
    },
    {
        "Name": "Shabushabuonyasai",
        "Address": "10-5 Ekimae Honcho Kawasaki-ku Kawasaki Kanagawa",
        "Url": "http://tabelog.com/en/kanagawa/A1405/A140501/14042313/",
        "Dishes": 3.02,
        "Service": 3.01,
        "Atmosphere": 3,
        "Cost": 3.02,
        "Drinks": 3.01,
        "Latitude": 35.5319529,
        "Longitude": 139.6994319
    },
    {
        "Name": "Kuidonsumibitei",
        "Address": "1丁目13-3 Sugita Isogo-ku Yokohama Kanagawa",
        "Url": "http://tabelog.com/en/kanagawa/A1401/A140308/14032109/",
        "Dishes": 3.02,
        "Service": 3.01,
        "Atmosphere": 3.01,
        "Cost": 3.01,
        "Drinks": 3.01,
        "Latitude": 35.3839901,
        "Longitude": 139.616572
    },
    {
        "Name": "Capriccio",
        "Address": "Fukutomicho Nishidori Naka-ku Yokohama Kanagawa",
        "Url": "http://tabelog.com/en/kanagawa/A1401/A140102/14057813/",
        "Dishes": 3.51,
        "Service": 3.49,
        "Atmosphere": 3.46,
        "Cost": 3.52,
        "Drinks": 3.3,
        "Latitude": 35.4459242,
        "Longitude": 139.629951
    },
    {
        "Name": "Ojori",
        "Address": "313-12 Nakazato Odawara Kanagawa",
        "Url": "http://tabelog.com/en/kanagawa/A1409/A140901/14005573/",
        "Dishes": 3.03,
        "Service": 3.03,
        "Atmosphere": 3.06,
        "Cost": 3.02,
        "Drinks": 3.04,
        "Latitude": 35.2832734,
        "Longitude": 139.1880012
    },
    {
        "Name": "Mambou",
        "Address": "2-74-1 Nogecho Naka-ku Yokohama Kanagawa",
        "Url": "http://tabelog.com/en/kanagawa/A1401/A140102/14050517/",
        "Dishes": 3.52,
        "Service": 3.11,
        "Atmosphere": 3.26,
        "Cost": 3.44,
        "Drinks": 3.31,
        "Latitude": 35.4485018,
        "Longitude": 139.6299675
    },
    {
        "Name": "Yataiya",
        "Address": "2-8-16 Hashimoto Midori-ku Sagamihara Kanagawa",
        "Url": "http://tabelog.com/en/kanagawa/A1407/A140701/14013343/",
        "Dishes": 3,
        "Service": 3,
        "Atmosphere": 3.01,
        "Cost": 3.04,
        "Drinks": 3.02,
        "Latitude": 35.5954752,
        "Longitude": 139.3410204
    },
    {
        "Name": "Saizeriya",
        "Address": "16-1 Totsukacho Totsuka-ku Yokohama Kanagawa",
        "Url": "http://tabelog.com/en/kanagawa/A1401/A140305/14035416/",
        "Dishes": 3,
        "Service": 3,
        "Atmosphere": 3,
        "Cost": 3.01,
        "Drinks": 3,
        "Latitude": 35.4015872,
        "Longitude": 139.5332269
    },
    {
        "Name": "Hamafuufuu",
        "Address": "9-27-6 Konandai Konan-ku Yokohama Kanagawa",
        "Url": "http://tabelog.com/en/kanagawa/A1401/A140309/14005784/",
        "Dishes": 3.04,
        "Service": 3.08,
        "Atmosphere": 3.05,
        "Cost": 3.08,
        "Drinks": 3,
        "Latitude": 35.3699639,
        "Longitude": 139.577443
    },
    {
        "Name": "kawarakafeandodainingu",
        "Address": "1-5-1 Minamisaiwai Nishi-ku Yokohama Kanagawa",
        "Url": "http://tabelog.com/en/kanagawa/A1401/A140101/14036933/",
        "Dishes": 3.12,
        "Service": 3.04,
        "Atmosphere": 3.3,
        "Cost": 3,
        "Drinks": 3.06,
        "Latitude": 35.4644335,
        "Longitude": 139.6198982
    },
    {
        "Name": "Kushikatsudengana",
        "Address": "中原区木月2-5-7",
        "Url": "http://tabelog.com/en/kanagawa/A1405/A140504/14058388/",
        "Dishes": 3.02,
        "Service": 3.01,
        "Atmosphere": 3.02,
        "Cost": 3.01,
        "Drinks": 3.02,
        "Latitude": 35.5647315,
        "Longitude": 139.6551794
    },
    {
        "Name": "Yakitorimarukin",
        "Address": "2-5-13 Hagoromocho Naka-ku Yokohama Kanagawa",
        "Url": "http://tabelog.com/en/kanagawa/A1401/A140104/14052515/",
        "Dishes": 3.01,
        "Service": 3.12,
        "Atmosphere": 3.05,
        "Cost": 3.19,
        "Drinks": 3.12,
        "Latitude": 35.4439439,
        "Longitude": 139.6341203
    },
    {
        "Name": "Uokuni",
        "Address": "1-1-9 Sakaecho Odawara Kanagawa",
        "Url": "http://tabelog.com/en/kanagawa/A1409/A140901/14006405/",
        "Dishes": 3.27,
        "Service": 3.22,
        "Atmosphere": 3.18,
        "Cost": 3.01,
        "Drinks": 3.16,
        "Latitude": 35.25584,
        "Longitude": 139.1555818
    },
    {
        "Name": "Tronas",
        "Address": "1-25-18 Ofuna Kamakura Kanagawa",
        "Url": "http://tabelog.com/en/kanagawa/A1404/A140401/14048053/",
        "Dishes": 3.18,
        "Service": 3.09,
        "Atmosphere": 3.19,
        "Cost": 3.26,
        "Drinks": 3.11,
        "Latitude": 35.3536631,
        "Longitude": 139.5332491
    },
    {
        "Name": "GRATIA",
        "Address": "2-11-23 Aobadai Aoba-ku Yokohama Kanagawa",
        "Url": "http://tabelog.com/en/kanagawa/A1401/A140202/14044501/",
        "Dishes": 3.56,
        "Service": 3.56,
        "Atmosphere": 3.53,
        "Cost": 3.56,
        "Drinks": 3.54,
        "Latitude": 35.547024,
        "Longitude": 139.5168094
    },
    {
        "Name": "Hamajirushisuisan",
        "Address": "2-11-4 Tsuruyacho Kanagawa-ku Yokohama Kanagawa",
        "Url": "http://tabelog.com/en/kanagawa/A1401/A140101/14037881/",
        "Dishes": 3.34,
        "Service": 3.23,
        "Atmosphere": 3.37,
        "Cost": 3.34,
        "Drinks": 3.13,
        "Latitude": 35.4694067,
        "Longitude": 139.6205455
    },
    {
        "Name": "Sanzen",
        "Address": "1-12-14 Mizonokuchi Takatsu-ku Kawasaki Kanagawa",
        "Url": "http://tabelog.com/en/kanagawa/A1405/A140505/14040047/",
        "Dishes": 3,
        "Service": 3,
        "Atmosphere": 3,
        "Cost": 3,
        "Drinks": 3,
        "Latitude": 35.6003954,
        "Longitude": 139.6131064
    },
    {
        "Name": "Kushiyakinonki",
        "Address": "2-2-17 Shimosakunobe Takatsu-ku Kawasaki Kanagawa",
        "Url": "http://tabelog.com/en/kanagawa/A1405/A140505/14053417/",
        "Dishes": 3.12,
        "Service": 3,
        "Atmosphere": 3.06,
        "Cost": 3.06,
        "Drinks": 3.06,
        "Latitude": 35.599715,
        "Longitude": 139.6087236
    },
    {
        "Name": "Kitchen SUZUYA",
        "Address": "1-5-9 Shimokodanaka Nakahara-ku Kawasaki Kanagawa",
        "Url": "http://tabelog.com/en/kanagawa/A1405/A140504/14037273/",
        "Dishes": 3.1,
        "Service": 3.11,
        "Atmosphere": 3.06,
        "Cost": 3.11,
        "Drinks": 3.09,
        "Latitude": 35.5810148,
        "Longitude": 139.639652
    },
    {
        "Name": "Chabora",
        "Address": "1-14 Ishikawacho Naka-ku Yokohama Kanagawa",
        "Url": "http://tabelog.com/en/kanagawa/A1401/A140105/14012007/",
        "Dishes": 3.35,
        "Service": 3.18,
        "Atmosphere": 3.31,
        "Cost": 3.25,
        "Drinks": 3.27,
        "Latitude": 35.4385917,
        "Longitude": 139.6451087
    },
    {
        "Name": "POZ DINING",
        "Address": "4-1 Yoshidamachi Naka-ku Yokohama Kanagawa",
        "Url": "http://tabelog.com/en/kanagawa/A1401/A140104/14006683/",
        "Dishes": 3.03,
        "Service": 3.02,
        "Atmosphere": 3.05,
        "Cost": 3.01,
        "Drinks": 3,
        "Latitude": 35.4458242,
        "Longitude": 139.6330258
    },
    {
        "Name": "Mamma Pasta",
        "Address": "1-7-11 Sakaecho Atsugi Kanagawa",
        "Url": "http://tabelog.com/en/kanagawa/A1408/A140802/14003852/",
        "Dishes": 3.08,
        "Service": 2.99,
        "Atmosphere": 3.03,
        "Cost": 3,
        "Drinks": 3.03,
        "Latitude": 35.441232,
        "Longitude": 139.3579671
    },
    {
        "Name": "Wanfuchin",
        "Address": "191-24 Yamashitacho Naka-ku Yokohama Kanagawa",
        "Url": "http://tabelog.com/en/kanagawa/A1401/A140105/14039020/",
        "Dishes": 3.51,
        "Service": 3.24,
        "Atmosphere": 3.32,
        "Cost": 3.39,
        "Drinks": 3,
        "Latitude": 35.4433217,
        "Longitude": 139.6463001
    },
    {
        "Name": "Yokohamauoman",
        "Address": "5-2 Ekimae Honcho Kawasaki-ku Kawasaki Kanagawa",
        "Url": "http://tabelog.com/en/kanagawa/A1405/A140501/14036799/",
        "Dishes": 2.99,
        "Service": 2.98,
        "Atmosphere": 2.99,
        "Cost": 3,
        "Drinks": 3.01,
        "Latitude": 35.53018369999999,
        "Longitude": 139.6990264
    },
    {
        "Name": "azu-ro",
        "Address": "1-10-7 Ofuna Kamakura Kanagawa",
        "Url": "http://tabelog.com/en/kanagawa/A1404/A140401/14003514/",
        "Dishes": 3.13,
        "Service": 3.08,
        "Atmosphere": 3.17,
        "Cost": 3.18,
        "Drinks": 3.12,
        "Latitude": 35.3525854,
        "Longitude": 139.532088
    },
    {
        "Name": "CAVOLLO CAFE",
        "Address": "2-19-2 Utsukushigaoka Aoba-ku Yokohama Kanagawa",
        "Url": "http://tabelog.com/en/kanagawa/A1401/A140201/14001388/",
        "Dishes": 3.09,
        "Service": 3,
        "Atmosphere": 3.14,
        "Cost": 3,
        "Drinks": 3.06,
        "Latitude": 35.5810622,
        "Longitude": 139.5585021
    },
    {
        "Name": "Yuzuya",
        "Address": "1-1-8 Isago Kawasaki-ku Kawasaki Kanagawa",
        "Url": "http://tabelog.com/en/kanagawa/A1405/A140501/14050898/",
        "Dishes": 2.98,
        "Service": 2.98,
        "Atmosphere": 2.99,
        "Cost": 2.98,
        "Drinks": 2.98,
        "Latitude": 35.53149459999999,
        "Longitude": 139.7009096
    },
    {
        "Name": "arohabi-chikafe",
        "Address": "1-25-1 Nakagawachuo Tsuzuki-ku Yokohama Kanagawa",
        "Url": "http://tabelog.com/en/kanagawa/A1401/A140203/14032719/",
        "Dishes": 3,
        "Service": 3,
        "Atmosphere": 3,
        "Cost": 3,
        "Drinks": 3,
        "Latitude": 35.5516442,
        "Longitude": 139.579457
    },
    {
        "Name": "Kushikatsudengana",
        "Address": "2-1 Ogawacho Kawasaki-ku Kawasaki Kanagawa",
        "Url": "http://tabelog.com/en/kanagawa/A1405/A140501/14036701/",
        "Dishes": 3.07,
        "Service": 3,
        "Atmosphere": 3.05,
        "Cost": 3.04,
        "Drinks": 3.01,
        "Latitude": 35.5287394,
        "Longitude": 139.6988071
    },
    {
        "Name": "Riviera Grand Blue",
        "Address": "5-23-16 Kotsubo Zushi Kanagawa",
        "Url": "http://tabelog.com/en/kanagawa/A1406/A140602/14004509/",
        "Dishes": 3.51,
        "Service": 3.52,
        "Atmosphere": 3.56,
        "Cost": 3.31,
        "Drinks": 3.14,
        "Latitude": 35.2956392,
        "Longitude": 139.5530051
    },
    {
        "Name": "Pinkuponikafe",
        "Address": "1-2 Yonegahamadori Yokosuka Kanagawa",
        "Url": "http://tabelog.com/en/kanagawa/A1406/A140601/14006682/",
        "Dishes": 3.04,
        "Service": 3.05,
        "Atmosphere": 3.06,
        "Cost": 3.06,
        "Drinks": 3.04,
        "Latitude": 35.2777858,
        "Longitude": 139.6747862
    },
    {
        "Name": "Shunsaishokkenhinano",
        "Address": "3-1-3 Konandai Konan-ku Yokohama Kanagawa",
        "Url": "http://tabelog.com/en/kanagawa/A1401/A140309/14038248/",
        "Dishes": 3.04,
        "Service": 3,
        "Atmosphere": 3.03,
        "Cost": 3.04,
        "Drinks": 3.01,
        "Latitude": 35.3747105,
        "Longitude": 139.5775402
    },
    {
        "Name": "Shimodazushi",
        "Address": "5-29-17 Shimodacho Kohoku-ku Yokohama Kanagawa",
        "Url": "http://tabelog.com/en/kanagawa/A1401/A140204/14020156/",
        "Dishes": 3,
        "Service": 3.08,
        "Atmosphere": 3,
        "Cost": 3,
        "Drinks": 3,
        "Latitude": 35.5574994,
        "Longitude": 139.6268266
    },
    {
        "Name": "Suzuya",
        "Address": "1-6-2 Shimokodanaka Nakahara-ku Kawasaki Kanagawa",
        "Url": "http://tabelog.com/en/kanagawa/A1405/A140504/14006960/",
        "Dishes": 3.07,
        "Service": 3.01,
        "Atmosphere": 3.03,
        "Cost": 3.03,
        "Drinks": 3.04,
        "Latitude": 35.5813397,
        "Longitude": 139.6398241
    },
    {
        "Name": "Akaitongarashi",
        "Address": "3-1 Fukutomicho Nishidori Naka-ku Yokohama Kanagawa",
        "Url": "http://tabelog.com/en/kanagawa/A1401/A140104/14008168/",
        "Dishes": 3.1,
        "Service": 2.98,
        "Atmosphere": 3.4,
        "Cost": 3.15,
        "Drinks": 3.09,
        "Latitude": 35.4460214,
        "Longitude": 139.6309982
    },
    {
        "Name": "Sumiyakichuubouenya",
        "Address": "5-3-3 Higashirinkan Minami-ku Sagamihara Kanagawa",
        "Url": "http://tabelog.com/en/kanagawa/A1407/A140701/14010090/",
        "Dishes": 3.2,
        "Service": 3.31,
        "Atmosphere": 3.31,
        "Cost": 3.24,
        "Drinks": 3.22,
        "Latitude": 35.5200608,
        "Longitude": 139.4387083
    },
    {
        "Name": "Taishoukenjikidenkintarou",
        "Address": "7-1-1 Seishin Chuo-ku Sagamihara Kanagawa",
        "Url": "http://tabelog.com/en/kanagawa/A1407/A140701/14040199/",
        "Dishes": 3.51,
        "Service": 3.52,
        "Atmosphere": 3.46,
        "Cost": 3.53,
        "Drinks": 3.02,
        "Latitude": 35.5742509,
        "Longitude": 139.3654188
    },
    {
        "Name": "Bistro Vin Vin",
        "Address": "2-14-25 Shinyokohama Kohoku-ku Yokohama Kanagawa",
        "Url": "http://tabelog.com/en/kanagawa/A1401/A140206/14050158/",
        "Dishes": 3.22,
        "Service": 3.27,
        "Atmosphere": 3.27,
        "Cost": 3.36,
        "Drinks": 3.36,
        "Latitude": 35.5097195,
        "Longitude": 139.6148098
    },
    {
        "Name": "Kyuushuunecchuuya",
        "Address": "3-4 Minamifujisawa Fujisawa Kanagawa",
        "Url": "http://tabelog.com/en/kanagawa/A1404/A140404/14057681/",
        "Dishes": 3,
        "Service": 3,
        "Atmosphere": 3,
        "Cost": 3,
        "Drinks": 3,
        "Latitude": 35.3380538,
        "Longitude": 139.4888194
    },
    {
        "Name": "Mongoruryourigara",
        "Address": "2-28 Bentendori Naka-ku Yokohama Kanagawa",
        "Url": "http://tabelog.com/en/kanagawa/A1401/A140104/14057478/",
        "Dishes": 3.24,
        "Service": 3.24,
        "Atmosphere": 3.3,
        "Cost": 3.24,
        "Drinks": 3.12,
        "Latitude": 35.4476518,
        "Longitude": 139.6391392
    },
    {
        "Name": "Torikizoku",
        "Address": "3-25 Chigasakichuo Tsuzuki-ku Yokohama Kanagawa",
        "Url": "http://tabelog.com/en/kanagawa/A1401/A140203/14050679/",
        "Dishes": 3,
        "Service": 3,
        "Atmosphere": 3,
        "Cost": 3,
        "Drinks": 3,
        "Latitude": 35.5447285,
        "Longitude": 139.5745799
    },
    {
        "Name": "FRESHNESS BURGER",
        "Address": "2-14-25 Shinyokohama Kohoku-ku Yokohama Kanagawa",
        "Url": "http://tabelog.com/en/kanagawa/A1401/A140206/14010767/",
        "Dishes": 3,
        "Service": 3.03,
        "Atmosphere": 3.08,
        "Cost": 2.99,
        "Drinks": 3,
        "Latitude": 35.5097195,
        "Longitude": 139.6148098
    },
    {
        "Name": "Kototoi",
        "Address": "2-17-1 Minamisaiwai Nishi-ku Yokohama Kanagawa",
        "Url": "http://tabelog.com/en/kanagawa/A1401/A140102/14049241/",
        "Dishes": 3,
        "Service": 3,
        "Atmosphere": 3,
        "Cost": 3,
        "Drinks": 3,
        "Latitude": 35.4640692,
        "Longitude": 139.6166267
    },
    {
        "Name": "Giburi",
        "Address": "1-38-6 Nakagawachuo Tsuzuki-ku Yokohama Kanagawa",
        "Url": "http://tabelog.com/en/kanagawa/A1401/A140203/14010010/",
        "Dishes": 3.03,
        "Service": 3.04,
        "Atmosphere": 3.15,
        "Cost": 3.01,
        "Drinks": 3.02,
        "Latitude": 35.5553132,
        "Longitude": 139.5805957
    },
    {
        "Name": "Kokosu",
        "Address": "2-5-7 Kodai Miyamae-ku Kawasaki Kanagawa",
        "Url": "http://tabelog.com/en/kanagawa/A1405/A140507/14035772/",
        "Dishes": 3,
        "Service": 3,
        "Atmosphere": 3,
        "Cost": 3,
        "Drinks": 3,
        "Latitude": 35.5842312,
        "Longitude": 139.5824664
    },
    {
        "Name": "Alte Liebe",
        "Address": "11 Nihonodori Naka-ku Yokohama Kanagawa",
        "Url": "http://tabelog.com/en/kanagawa/A1401/A140104/14000536/",
        "Dishes": 3.52,
        "Service": 3.51,
        "Atmosphere": 3.57,
        "Cost": 3.46,
        "Drinks": 3.5,
        "Latitude": 35.4462658,
        "Longitude": 139.6428529
    },
    {
        "Name": "Ball Hafen",
        "Address": "3-141-6 Motomachi Naka-ku Yokohama Kanagawa",
        "Url": "http://tabelog.com/en/kanagawa/A1401/A140105/14058017/",
        "Dishes": 3.34,
        "Service": 3.45,
        "Atmosphere": 3.29,
        "Cost": 3.49,
        "Drinks": 3.28,
        "Latitude": 35.4397499,
        "Longitude": 139.6479335
    },
    {
        "Name": "Gimpachisushi",
        "Address": "30 Horikawa Hadano Kanagawa",
        "Url": "http://tabelog.com/en/kanagawa/A1408/A140804/14013873/",
        "Dishes": 3.09,
        "Service": 3.02,
        "Atmosphere": 3,
        "Cost": 3,
        "Drinks": 3,
        "Latitude": 35.3790928,
        "Longitude": 139.1908624
    },
    {
        "Name": "La Masa",
        "Address": "1-1-7 Sakaecho Odawara Kanagawa",
        "Url": "http://tabelog.com/en/kanagawa/A1409/A140901/14056630/",
        "Dishes": 3.01,
        "Service": 3,
        "Atmosphere": 3.1,
        "Cost": 3.01,
        "Drinks": 3.01,
        "Latitude": 35.2556178,
        "Longitude": 139.1560206
    },
    {
        "Name": "Saizeriya",
        "Address": "1-68-2 Futamatagawa Asahi-ku Yokohama Kanagawa",
        "Url": "http://tabelog.com/en/kanagawa/A1401/A140303/14027295/",
        "Dishes": 3,
        "Service": 3,
        "Atmosphere": 3,
        "Cost": 3.02,
        "Drinks": 3.01,
        "Latitude": 35.467229,
        "Longitude": 139.5300157
    },
    {
        "Name": "Gyuukaku",
        "Address": "2-1-22 Minamisaiwai Nishi-ku Yokohama Kanagawa",
        "Url": "http://tabelog.com/en/kanagawa/A1401/A140101/14008186/",
        "Dishes": 3,
        "Service": 3,
        "Atmosphere": 3,
        "Cost": 3,
        "Drinks": 3,
        "Latitude": 35.4637193,
        "Longitude": 139.6189292
    },
    {
        "Name": "Suiyou",
        "Address": "2-62 Hanasakicho Naka-ku Yokohama Kanagawa",
        "Url": "http://tabelog.com/en/kanagawa/A1401/A140102/14036410/",
        "Dishes": 3.3,
        "Service": 3.05,
        "Atmosphere": 2.99,
        "Cost": 3.5,
        "Drinks": 3.12,
        "Latitude": 35.4496404,
        "Longitude": 139.6293148
    },
    {
        "Name": "Chuukagaidaihanten",
        "Address": "202-8 Yamashitacho Naka-ku Yokohama Kanagawa",
        "Url": "http://tabelog.com/en/kanagawa/A1401/A140105/14054592/",
        "Dishes": 3.12,
        "Service": 3.12,
        "Atmosphere": 3.12,
        "Cost": 3.12,
        "Drinks": 3.12,
        "Latitude": 35.4430412,
        "Longitude": 139.6436002
    },
    {
        "Name": "Uotami",
        "Address": "1-3-7 Isago Kawasaki-ku Kawasaki Kanagawa",
        "Url": "http://tabelog.com/en/kanagawa/A1405/A140501/14013924/",
        "Dishes": 3.01,
        "Service": 3.01,
        "Atmosphere": 3.01,
        "Cost": 3.01,
        "Drinks": 3.01,
        "Latitude": 35.5320001,
        "Longitude": 139.7005735
    },
    {
        "Name": "Wanozenyuzu",
        "Address": "2-7-8 Minamisaiwai Nishi-ku Yokohama Kanagawa",
        "Url": "http://tabelog.com/en/kanagawa/A1401/A140101/14007461/",
        "Dishes": 3.09,
        "Service": 3.05,
        "Atmosphere": 3.11,
        "Cost": 3.01,
        "Drinks": 3.12,
        "Latitude": 35.4635478,
        "Longitude": 139.617538
    },
    {
        "Name": "Gempinfugu",
        "Address": "2-12-1 Azamino Aoba-ku Yokohama Kanagawa",
        "Url": "http://tabelog.com/en/kanagawa/A1401/A140201/14008832/",
        "Dishes": 3.02,
        "Service": 3,
        "Atmosphere": 3,
        "Cost": 3.01,
        "Drinks": 3,
        "Latitude": 35.5683306,
        "Longitude": 139.5502118
    },
    {
        "Name": "Warawara",
        "Address": "2-6-8 Isago Kawasaki-ku Kawasaki Kanagawa",
        "Url": "http://tabelog.com/en/kanagawa/A1405/A140501/14021245/",
        "Dishes": 3,
        "Service": 3.01,
        "Atmosphere": 3,
        "Cost": 3.02,
        "Drinks": 3,
        "Latitude": 35.5289783,
        "Longitude": 139.7001653
    },
    {
        "Name": "Masukane",
        "Address": "1-4 Shinmeicho Saiwai-ku Kawasaki Kanagawa",
        "Url": "http://tabelog.com/en/kanagawa/A1405/A140501/14027689/",
        "Dishes": 3.04,
        "Service": 3,
        "Atmosphere": 3.03,
        "Cost": 3.03,
        "Drinks": 3,
        "Latitude": 35.5388907,
        "Longitude": 139.6913741
    },
    {
        "Name": "Arufakurosu",
        "Address": "2662-2 Noborito Tama-ku Kawasaki Kanagawa",
        "Url": "http://tabelog.com/en/kanagawa/A1405/A140506/14009700/",
        "Dishes": 3.01,
        "Service": 3.01,
        "Atmosphere": 3.01,
        "Cost": 3,
        "Drinks": 3.01,
        "Latitude": 35.6260371,
        "Longitude": 139.555758
    },
    {
        "Name": "Bisutoroshounan",
        "Address": "1-20-14 Ofuna Kamakura Kanagawa",
        "Url": "http://tabelog.com/en/kanagawa/A1404/A140401/14049738/",
        "Dishes": 3.42,
        "Service": 3.5,
        "Atmosphere": 3.32,
        "Cost": 3.53,
        "Drinks": 3.31,
        "Latitude": 35.3518522,
        "Longitude": 139.5327602
    },
    {
        "Name": "Seikourou",
        "Address": "2-5-13 Shinyokohama Kohoku-ku Yokohama Kanagawa",
        "Url": "http://tabelog.com/en/kanagawa/A1401/A140206/14009206/",
        "Dishes": 3.41,
        "Service": 2.96,
        "Atmosphere": 3,
        "Cost": 3.26,
        "Drinks": 3.3,
        "Latitude": 35.5088453,
        "Longitude": 139.6151081
    },
    {
        "Name": "Wakatake",
        "Address": "7-7 Ekimae Honcho Kawasaki-ku Kawasaki Kanagawa",
        "Url": "http://tabelog.com/en/kanagawa/A1405/A140501/14010868/",
        "Dishes": 3.02,
        "Service": 2.99,
        "Atmosphere": 2.98,
        "Cost": 2.99,
        "Drinks": 2.99,
        "Latitude": 35.5305614,
        "Longitude": 139.6996042
    },
    {
        "Name": "harukafeni-ni-kyuu",
        "Address": "Komachi Kamakura Kanagawa",
        "Url": "http://tabelog.com/en/kanagawa/A1404/A140402/14058763/",
        "Dishes": 3.05,
        "Service": 3.06,
        "Atmosphere": 3.05,
        "Cost": 3.02,
        "Drinks": 3.05,
        "Latitude": 35.3206892,
        "Longitude": 139.551667
    },
    {
        "Name": "Raito",
        "Address": "1-526-6 Kosugimachi Nakahara-ku Kawasaki Kanagawa",
        "Url": "http://tabelog.com/en/kanagawa/A1405/A140504/14039733/",
        "Dishes": 3.08,
        "Service": 3.05,
        "Atmosphere": 3.11,
        "Cost": 3.01,
        "Drinks": 3.03,
        "Latitude": 35.5787179,
        "Longitude": 139.6590947
    },
    {
        "Name": "Itton",
        "Address": "4-7 Toyookacho Tsurumi-ku Yokohama Kanagawa",
        "Url": "http://tabelog.com/en/kanagawa/A1401/A140210/14054281/",
        "Dishes": 3.05,
        "Service": 3.02,
        "Atmosphere": 3.01,
        "Cost": 3.05,
        "Drinks": 3,
        "Latitude": 35.5061151,
        "Longitude": 139.675196
    },
    {
        "Name": "Ryuuka",
        "Address": "2-1-8 Suge Tama-ku Kawasaki Kanagawa",
        "Url": "http://tabelog.com/en/kanagawa/A1405/A140506/14051298/",
        "Dishes": 3.03,
        "Service": 3.08,
        "Atmosphere": 3.02,
        "Cost": 3.02,
        "Drinks": 3.03,
        "Latitude": 35.6338506,
        "Longitude": 139.5334123
    },
    {
        "Name": "COCO'S",
        "Address": "2-38-11 Hakusan Midori-ku Yokohama Kanagawa",
        "Url": "http://tabelog.com/en/kanagawa/A1401/A140207/14044447/",
        "Dishes": 3,
        "Service": 3,
        "Atmosphere": 3,
        "Cost": 3,
        "Drinks": 3,
        "Latitude": 35.5072464,
        "Longitude": 139.5557874
    },
    {
        "Name": "Tebasakibombon",
        "Address": "6-8 Miyamotocho Kawasaki-ku Kawasaki Kanagawa",
        "Url": "http://tabelog.com/en/kanagawa/A1405/A140501/14043899/",
        "Dishes": 3,
        "Service": 3.03,
        "Atmosphere": 3.06,
        "Cost": 3,
        "Drinks": 3,
        "Latitude": 35.5308891,
        "Longitude": 139.704076
    },
    {
        "Name": "Ginzaisomura",
        "Address": "1-1-9 Kugenumatachibana Fujisawa Kanagawa",
        "Url": "http://tabelog.com/en/kanagawa/A1404/A140404/14005286/",
        "Dishes": 3.35,
        "Service": 3.15,
        "Atmosphere": 3.23,
        "Cost": 3.35,
        "Drinks": 3.16,
        "Latitude": 35.3361095,
        "Longitude": 139.4862807
    },
    {
        "Name": "Suyama",
        "Address": "1-7 Yayoicho Naka-ku Yokohama Kanagawa",
        "Url": "http://tabelog.com/en/kanagawa/A1401/A140104/14001704/",
        "Dishes": 3.06,
        "Service": 3.03,
        "Atmosphere": 3.06,
        "Cost": 3,
        "Drinks": 3.03,
        "Latitude": 35.4407665,
        "Longitude": 139.6312761
    },
    {
        "Name": "Yamagusuri",
        "Address": "224 Miyanoshita Hakone Ashigarashimo-gun Kanagawa",
        "Url": "http://tabelog.com/en/kanagawa/A1410/A141001/14053241/",
        "Dishes": 3.2,
        "Service": 3.26,
        "Atmosphere": 3.2,
        "Cost": 2.98,
        "Drinks": 3,
        "Latitude": 35.2453902,
        "Longitude": 139.0587889
    },
    {
        "Name": "santouchuubou",
        "Address": "港北区綱島東1-1-6",
        "Url": "http://tabelog.com/en/kanagawa/A1401/A140204/14052788/",
        "Dishes": 3,
        "Service": 2.99,
        "Atmosphere": 3,
        "Cost": 3.06,
        "Drinks": 3,
        "Latitude": 35.5368837,
        "Longitude": 139.635207
    },
    {
        "Name": "RIO",
        "Address": "1-5-1 Minamisaiwai Nishi-ku Yokohama Kanagawa",
        "Url": "http://tabelog.com/en/kanagawa/A1401/A140101/14000570/",
        "Dishes": 3.51,
        "Service": 3.5,
        "Atmosphere": 3.51,
        "Cost": 3.54,
        "Drinks": 3.09,
        "Latitude": 35.4644335,
        "Longitude": 139.6198982
    },
    {
        "Name": "Okonomimonja",
        "Address": "2-6-7 Minamisaiwai Nishi-ku Yokohama Kanagawa",
        "Url": "http://tabelog.com/en/kanagawa/A1401/A140101/14012817/",
        "Dishes": 3.13,
        "Service": 3.07,
        "Atmosphere": 3.08,
        "Cost": 3.13,
        "Drinks": 3.01,
        "Latitude": 35.4633138,
        "Longitude": 139.618232
    },
    {
        "Name": "ALLORA",
        "Address": "5-67 Otamachi Naka-ku Yokohama Kanagawa",
        "Url": "http://tabelog.com/en/kanagawa/A1401/A140104/14045023/",
        "Dishes": 3.46,
        "Service": 3.43,
        "Atmosphere": 3.41,
        "Cost": 3.52,
        "Drinks": 3.37,
        "Latitude": 35.4488905,
        "Longitude": 139.6355144
    },
    {
        "Name": "Yakinikuokuu",
        "Address": "319-18 Katsuracho Sakae-ku Yokohama Kanagawa",
        "Url": "http://tabelog.com/en/kanagawa/A1401/A140309/14010618/",
        "Dishes": 3.63,
        "Service": 3.55,
        "Atmosphere": 3.52,
        "Cost": 3.63,
        "Drinks": 3.52,
        "Latitude": 35.3638479,
        "Longitude": 139.5542062
    },
    {
        "Name": "SAINTMARC",
        "Address": "3-10 Sakuranamiki Tsuzuki-ku Yokohama Kanagawa",
        "Url": "http://tabelog.com/en/kanagawa/A1401/A140201/14002280/",
        "Dishes": 3.03,
        "Service": 3,
        "Atmosphere": 3.04,
        "Cost": 3,
        "Drinks": 3,
        "Latitude": 35.5360436,
        "Longitude": 139.5780076
    },
    {
        "Name": "Yarukijaya",
        "Address": "2-3-35 Kizuki Nakahara-ku Kawasaki Kanagawa",
        "Url": "http://tabelog.com/en/kanagawa/A1405/A140504/14021239/",
        "Dishes": 3,
        "Service": 3.02,
        "Atmosphere": 3,
        "Cost": 3.02,
        "Drinks": 3.01,
        "Latitude": 35.5648842,
        "Longitude": 139.6549433
    },
    {
        "Name": "Yakitorinokai",
        "Address": "4-14-41 Tamura Hiratsuka Kanagawa",
        "Url": "http://tabelog.com/en/kanagawa/A1404/A140407/14029515/",
        "Dishes": 3.12,
        "Service": 3.12,
        "Atmosphere": 3.06,
        "Cost": 3.06,
        "Drinks": 3.06,
        "Latitude": 35.3777947,
        "Longitude": 139.3614517
    },
    {
        "Name": "Jojoen",
        "Address": "1-1-3 Nakagawachuo Tsuzuki-ku Yokohama Kanagawa",
        "Url": "http://tabelog.com/en/kanagawa/A1401/A140203/14001726/",
        "Dishes": 3.07,
        "Service": 3.05,
        "Atmosphere": 3.01,
        "Cost": 3.02,
        "Drinks": 3,
        "Latitude": 35.5535078,
        "Longitude": 139.5780432
    },
    {
        "Name": "Zawatami",
        "Address": "2-4-17 Isago Kawasaki-ku Kawasaki Kanagawa",
        "Url": "http://tabelog.com/en/kanagawa/A1405/A140501/14012115/",
        "Dishes": 3,
        "Service": 3.01,
        "Atmosphere": 3.01,
        "Cost": 3,
        "Drinks": 3,
        "Latitude": 35.5301725,
        "Longitude": 139.7007596
    },
    {
        "Name": "F+ affinity dining",
        "Address": "1-5-4 Kitasaiwai Nishi-ku Yokohama Kanagawa",
        "Url": "http://tabelog.com/en/kanagawa/A1401/A140101/14033286/",
        "Dishes": 3.08,
        "Service": 3.03,
        "Atmosphere": 3.2,
        "Cost": 3,
        "Drinks": 3.01,
        "Latitude": 35.4670828,
        "Longitude": 139.6188124
    },
    {
        "Name": "NIJYU-MARU",
        "Address": "1-8-6 Kitasaiwai Nishi-ku Yokohama Kanagawa",
        "Url": "http://tabelog.com/en/kanagawa/A1401/A140101/14031554/",
        "Dishes": 3,
        "Service": 3,
        "Atmosphere": 2.99,
        "Cost": 3.01,
        "Drinks": 3,
        "Latitude": 35.4659551,
        "Longitude": 139.6187819
    },
    {
        "Name": "Ristorante REAL",
        "Address": "2-10-28 Takashima Nishi-ku Yokohama Kanagawa",
        "Url": "http://tabelog.com/en/kanagawa/A1401/A140101/14001999/",
        "Dishes": 3.23,
        "Service": 3.14,
        "Atmosphere": 3.19,
        "Cost": 3.12,
        "Drinks": 3.04,
        "Latitude": 35.4625139,
        "Longitude": 139.6224983
    },
    {
        "Name": "Tomathina",
        "Address": "3435 Noborito Tama-ku Kawasaki Kanagawa",
        "Url": "http://tabelog.com/en/kanagawa/A1405/A140506/14010539/",
        "Dishes": 3.3,
        "Service": 2.97,
        "Atmosphere": 2.97,
        "Cost": 3.08,
        "Drinks": 2.99,
        "Latitude": 35.6208085,
        "Longitude": 139.5700873
    },
    {
        "Name": "Kanthinumashu",
        "Address": "1-7-11 Nakakaigan Chigasaki Kanagawa",
        "Url": "http://tabelog.com/en/kanagawa/A1404/A140406/14038300/",
        "Dishes": 3,
        "Service": 3,
        "Atmosphere": 3,
        "Cost": 3.03,
        "Drinks": 3.03,
        "Latitude": 35.3244077,
        "Longitude": 139.4022364
    },
    {
        "Name": "Ichinokura",
        "Address": "1-4-23 Tsunashimanishi Kohoku-ku Yokohama Kanagawa",
        "Url": "http://tabelog.com/en/kanagawa/A1401/A140204/14005776/",
        "Dishes": 3.24,
        "Service": 3.03,
        "Atmosphere": 3.14,
        "Cost": 3.11,
        "Drinks": 3.12,
        "Latitude": 35.5377724,
        "Longitude": 139.6349931
    },
    {
        "Name": "Kirakirahompo",
        "Address": "1-4-9 Shinyokohama Kohoku-ku Yokohama Kanagawa",
        "Url": "http://tabelog.com/en/kanagawa/A1401/A140206/14041509/",
        "Dishes": 3.54,
        "Service": 3.51,
        "Atmosphere": 3.46,
        "Cost": 3.52,
        "Drinks": 3.52,
        "Latitude": 35.5038811,
        "Longitude": 139.6125908
    },
    {
        "Name": "Kaseirou",
        "Address": "186 Yamashitacho Naka-ku Yokohama Kanagawa",
        "Url": "http://tabelog.com/en/kanagawa/A1401/A140105/14000495/",
        "Dishes": 3.63,
        "Service": 3.55,
        "Atmosphere": 3.58,
        "Cost": 3.53,
        "Drinks": 3.39,
        "Latitude": 35.4431606,
        "Longitude": 139.6470833
    },
    {
        "Name": "Tobaya",
        "Address": "5-63 Sumiyoshicho Naka-ku Yokohama Kanagawa",
        "Url": "http://tabelog.com/en/kanagawa/A1401/A140104/14014993/",
        "Dishes": 3.36,
        "Service": 3.24,
        "Atmosphere": 3.43,
        "Cost": 3.17,
        "Drinks": 3.27,
        "Latitude": 35.4480267,
        "Longitude": 139.6350867
    },
    {
        "Name": "Mammaru",
        "Address": "2-50 Aioicho Naka-ku Yokohama Kanagawa",
        "Url": "http://tabelog.com/en/kanagawa/A1401/A140104/14007269/",
        "Dishes": 3.09,
        "Service": 2.99,
        "Atmosphere": 3.01,
        "Cost": 3.03,
        "Drinks": 3.02,
        "Latitude": 35.4464769,
        "Longitude": 139.6383115
    },
    {
        "Name": "World Wine Bar",
        "Address": "1-27-2 Motomachi Naka-ku Yokohama Kanagawa",
        "Url": "http://tabelog.com/en/kanagawa/A1401/A140105/14053916/",
        "Dishes": 3.03,
        "Service": 3.08,
        "Atmosphere": 3.08,
        "Cost": 3.04,
        "Drinks": 3.14,
        "Latitude": 35.4408248,
        "Longitude": 139.6498083
    },
    {
        "Name": "YABIN",
        "Address": "6-36 Kuzugaya Tsuzuki-ku Yokohama Kanagawa",
        "Url": "http://tabelog.com/en/kanagawa/A1401/A140203/14054647/",
        "Dishes": 3,
        "Service": 3.07,
        "Atmosphere": 3.06,
        "Cost": 3.11,
        "Drinks": 3.14,
        "Latitude": 35.5386539,
        "Longitude": 139.5620534
    },
    {
        "Name": "Zundoba",
        "Address": "1954-1 Nanasawa Atsugi Kanagawa",
        "Url": "http://tabelog.com/en/kanagawa/A1408/A140802/14000184/",
        "Dishes": 3.71,
        "Service": 3.64,
        "Atmosphere": 3.7,
        "Cost": 3.54,
        "Drinks": 3.11,
        "Latitude": 35.4516954,
        "Longitude": 139.2924169
    },
    {
        "Name": "YUTORi",
        "Address": "576-4 Fujisawa Fujisawa Kanagawa",
        "Url": "http://tabelog.com/en/kanagawa/A1404/A140404/14056680/",
        "Dishes": 3.46,
        "Service": 3.36,
        "Atmosphere": 3.51,
        "Cost": 3.36,
        "Drinks": 3,
        "Latitude": 35.3415256,
        "Longitude": 139.4884417
    },
    {
        "Name": "Totoriya",
        "Address": "2-3-10 Shinyokohama Kohoku-ku Yokohama Kanagawa",
        "Url": "http://tabelog.com/en/kanagawa/A1401/A140206/14052043/",
        "Dishes": 3.04,
        "Service": 3.01,
        "Atmosphere": 3,
        "Cost": 3.17,
        "Drinks": 3.05,
        "Latitude": 35.5083391,
        "Longitude": 139.615121
    },
    {
        "Name": "Kokosu",
        "Address": "1627-1 Nippacho Kohoku-ku Yokohama Kanagawa",
        "Url": "http://tabelog.com/en/kanagawa/A1401/A140206/14040990/",
        "Dishes": 3,
        "Service": 3,
        "Atmosphere": 3,
        "Cost": 3.01,
        "Drinks": 3.01,
        "Latitude": 35.527826,
        "Longitude": 139.6109903
    },
    {
        "Name": "Koukiya",
        "Address": "5-93-1 Aioicho Naka-ku Yokohama Kanagawa",
        "Url": "http://tabelog.com/en/kanagawa/A1401/A140104/14015494/",
        "Dishes": 3.14,
        "Service": 3.08,
        "Atmosphere": 3.05,
        "Cost": 3.02,
        "Drinks": 3,
        "Latitude": 35.448072,
        "Longitude": 139.6354262
    },
    {
        "Name": "Gatthi",
        "Address": "2-9-9 Minamisaiwai Nishi-ku Yokohama Kanagawa",
        "Url": "http://tabelog.com/en/kanagawa/A1401/A140101/14051289/",
        "Dishes": 3.06,
        "Service": 3.06,
        "Atmosphere": 3.06,
        "Cost": 3.09,
        "Drinks": 3.07,
        "Latitude": 35.4632249,
        "Longitude": 139.6175766
    },
    {
        "Name": "Kappazushi",
        "Address": "3002-23 Shimotsuruma Yamato Kanagawa",
        "Url": "http://tabelog.com/en/kanagawa/A1407/A140702/14041098/",
        "Dishes": 2.99,
        "Service": 2.99,
        "Atmosphere": 2.99,
        "Cost": 3,
        "Drinks": 3,
        "Latitude": 35.4989985,
        "Longitude": 139.451719
    },
    {
        "Name": "Sakurasuisan",
        "Address": "1-31-2 Tsurumichuo Tsurumi-ku Yokohama Kanagawa",
        "Url": "http://tabelog.com/en/kanagawa/A1401/A140210/14004501/",
        "Dishes": 3,
        "Service": 3,
        "Atmosphere": 3,
        "Cost": 3.03,
        "Drinks": 3.01,
        "Latitude": 35.5070567,
        "Longitude": 139.6767847
    },
    {
        "Name": "Houtenkaku",
        "Address": "192-15 Yamashitacho Naka-ku Yokohama Kanagawa",
        "Url": "http://tabelog.com/en/kanagawa/A1401/A140105/14040668/",
        "Dishes": 3.49,
        "Service": 3,
        "Atmosphere": 3.1,
        "Cost": 3.19,
        "Drinks": 3,
        "Latitude": 35.4433273,
        "Longitude": 139.6467417
    },
    {
        "Name": "grill \u0026 aligot zip",
        "Address": "1-14 Minaminakadori Naka-ku Yokohama Kanagawa",
        "Url": "http://tabelog.com/en/kanagawa/A1401/A140104/14006949/",
        "Dishes": 3.49,
        "Service": 3.37,
        "Atmosphere": 3.51,
        "Cost": 3.26,
        "Drinks": 3.26,
        "Latitude": 35.4473518,
        "Longitude": 139.6401392
    },
    {
        "Name": "Bistro Graine Marche",
        "Address": "1-11-10 Tsunashimanishi Kohoku-ku Yokohama Kanagawa",
        "Url": "http://tabelog.com/en/kanagawa/A1401/A140204/14052475/",
        "Dishes": 3.01,
        "Service": 3,
        "Atmosphere": 3.07,
        "Cost": 3.04,
        "Drinks": 3,
        "Latitude": 35.5371948,
        "Longitude": 139.6333405
    },
    {
        "Name": "Mizonoguchiyakinikunikuyarou",
        "Address": "1-12-5 Mizonokuchi Takatsu-ku Kawasaki Kanagawa",
        "Url": "http://tabelog.com/en/kanagawa/A1405/A140505/14055613/",
        "Dishes": 3.06,
        "Service": 3.02,
        "Atmosphere": 3.02,
        "Cost": 3.04,
        "Drinks": 3,
        "Latitude": 35.6005732,
        "Longitude": 139.6121676
    },
    {
        "Name": "Izakayakamon",
        "Address": "1-13-1 Sugita Isogo-ku Yokohama Kanagawa",
        "Url": "http://tabelog.com/en/kanagawa/A1401/A140308/14005903/",
        "Dishes": 3.28,
        "Service": 3.29,
        "Atmosphere": 3.13,
        "Cost": 3.39,
        "Drinks": 3.35,
        "Latitude": 35.3845241,
        "Longitude": 139.6182861
    },
    {
        "Name": "Dainingubayoshihama",
        "Address": "2-5-10 Shinyokohama Kohoku-ku Yokohama Kanagawa",
        "Url": "http://tabelog.com/en/kanagawa/A1401/A140206/14004084/",
        "Dishes": 3.01,
        "Service": 3.06,
        "Atmosphere": 3.33,
        "Cost": 3.33,
        "Drinks": 3.33,
        "Latitude": 35.5098417,
        "Longitude": 139.6156764
    },
    {
        "Name": "Kicchinoomiya",
        "Address": "3-5-1 Minatomirai Nishi-ku Yokohama Kanagawa",
        "Url": "http://tabelog.com/en/kanagawa/A1401/A140101/14051204/",
        "Dishes": 3.5,
        "Service": 3.52,
        "Atmosphere": 3.54,
        "Cost": 3.44,
        "Drinks": 3.47,
        "Latitude": 35.4576978,
        "Longitude": 139.631756
    },
    {
        "Name": "Kaisendonyakaishuu",
        "Address": "1-14-55 Sakaecho Odawara Kanagawa",
        "Url": "http://tabelog.com/en/kanagawa/A1409/A140901/14042462/",
        "Dishes": 3.24,
        "Service": 3,
        "Atmosphere": 3.01,
        "Cost": 2.96,
        "Drinks": 3,
        "Latitude": 35.2544041,
        "Longitude": 139.1577761
    },
    {
        "Name": "LAFALE",
        "Address": "2-13-11 Tsuruyacho Kanagawa-ku Yokohama Kanagawa",
        "Url": "http://tabelog.com/en/kanagawa/A1401/A140101/14050936/",
        "Dishes": 3.01,
        "Service": 3.01,
        "Atmosphere": 3.02,
        "Cost": 3.02,
        "Drinks": 3.01,
        "Latitude": 35.4685104,
        "Longitude": 139.6231064
    },
    {
        "Name": "Sangendou",
        "Address": "3-2-48 Chuo Ebina Kanagawa",
        "Url": "http://tabelog.com/en/kanagawa/A1408/A140801/14002961/",
        "Dishes": 3,
        "Service": 3,
        "Atmosphere": 3.03,
        "Cost": 3,
        "Drinks": 3,
        "Latitude": 35.4510007,
        "Longitude": 139.3902697
    },
    {
        "Name": "Gyuukaku",
        "Address": "1-19-17 Hiyoshihoncho Kohoku-ku Yokohama Kanagawa",
        "Url": "http://tabelog.com/en/kanagawa/A1401/A140204/14029547/",
        "Dishes": 3,
        "Service": 3,
        "Atmosphere": 3,
        "Cost": 3,
        "Drinks": 3,
        "Latitude": 35.5534141,
        "Longitude": 139.6453667
    },
    {
        "Name": "ROCK A HULA",
        "Address": "2-17-8 Minamisaiwai Nishi-ku Yokohama Kanagawa",
        "Url": "http://tabelog.com/en/kanagawa/A1401/A140101/14030428/",
        "Dishes": 3,
        "Service": 3,
        "Atmosphere": 3.03,
        "Cost": 3,
        "Drinks": 3.06,
        "Latitude": 35.4637304,
        "Longitude": 139.6160934
    },
    {
        "Name": "kafeandodainingubarobaro",
        "Address": "2-6-2 Minamisaiwai Nishi-ku Yokohama Kanagawa",
        "Url": "http://tabelog.com/en/kanagawa/A1401/A140101/14046239/",
        "Dishes": 3.03,
        "Service": 3,
        "Atmosphere": 3,
        "Cost": 3.08,
        "Drinks": 3,
        "Latitude": 35.463711,
        "Longitude": 139.6184653
    },
    {
        "Name": "Shounanyururi",
        "Address": "9-18 Beniyacho Hiratsuka Kanagawa",
        "Url": "http://tabelog.com/en/kanagawa/A1404/A140407/14007128/",
        "Dishes": 3.1,
        "Service": 3.17,
        "Atmosphere": 3.11,
        "Cost": 3.09,
        "Drinks": 3.11,
        "Latitude": 35.328736,
        "Longitude": 139.3482961
    },
    {
        "Name": "Ampuku",
        "Address": "72-1 Horikawacho Saiwai-ku Kawasaki Kanagawa",
        "Url": "http://tabelog.com/en/kanagawa/A1405/A140501/14048473/",
        "Dishes": 3.52,
        "Service": 3.46,
        "Atmosphere": 3.53,
        "Cost": 3.51,
        "Drinks": 3.13,
        "Latitude": 35.5325417,
        "Longitude": 139.6967571
    },
    {
        "Name": "Bikkuriya",
        "Address": "1-7-4 Ikegamishincho Kawasaki-ku Kawasaki Kanagawa",
        "Url": "http://tabelog.com/en/kanagawa/A1405/A140502/14014602/",
        "Dishes": 3.06,
        "Service": 3,
        "Atmosphere": 3,
        "Cost": 3,
        "Drinks": 3,
        "Latitude": 35.5230568,
        "Longitude": 139.729363
    },
    {
        "Name": "Ponkichi",
        "Address": "1-18-3 Okurayama Kohoku-ku Yokohama Kanagawa",
        "Url": "http://tabelog.com/en/kanagawa/A1401/A140204/14032019/",
        "Dishes": 3,
        "Service": 3,
        "Atmosphere": 3,
        "Cost": 3.05,
        "Drinks": 3,
        "Latitude": 35.5214714,
        "Longitude": 139.6300357
    },
    {
        "Name": "Minatoichiya",
        "Address": "2-3-10 Shinyokohama Kohoku-ku Yokohama Kanagawa",
        "Url": "http://tabelog.com/en/kanagawa/A1401/A140206/14037128/",
        "Dishes": 3.08,
        "Service": 3.01,
        "Atmosphere": 3.47,
        "Cost": 3.25,
        "Drinks": 3.2,
        "Latitude": 35.5083391,
        "Longitude": 139.615121
    },
    {
        "Name": "Okabe",
        "Address": "1-748-1 Saiwaicho Saiwai-ku Kawasaki Kanagawa",
        "Url": "http://tabelog.com/en/kanagawa/A1405/A140501/14009481/",
        "Dishes": 3.53,
        "Service": 3.51,
        "Atmosphere": 3.46,
        "Cost": 3.51,
        "Drinks": 3.06,
        "Latitude": 35.5351691,
        "Longitude": 139.698668
    },
    {
        "Name": "Otooto",
        "Address": "72-1 Horikawacho Saiwai-ku Kawasaki Kanagawa",
        "Url": "http://tabelog.com/en/kanagawa/A1405/A140501/14006803/",
        "Dishes": 3.23,
        "Service": 3.03,
        "Atmosphere": 3.26,
        "Cost": 2.99,
        "Drinks": 3.19,
        "Latitude": 35.5325417,
        "Longitude": 139.6967571
    },
    {
        "Name": "Shigorokusaikan",
        "Address": "202-1 Yamashitacho Naka-ku Yokohama Kanagawa",
        "Url": "http://tabelog.com/en/kanagawa/A1401/A140105/14002977/",
        "Dishes": 3.44,
        "Service": 3.05,
        "Atmosphere": 3.25,
        "Cost": 3.51,
        "Drinks": 3.17,
        "Latitude": 35.4430412,
        "Longitude": 139.6436002
    },
    {
        "Name": "Ishibekoujimamecha",
        "Address": "2-16-1 Takashima Nishi-ku Yokohama Kanagawa",
        "Url": "http://tabelog.com/en/kanagawa/A1401/A140101/14001818/",
        "Dishes": 3.26,
        "Service": 3.29,
        "Atmosphere": 3.33,
        "Cost": 2.99,
        "Drinks": 2.98,
        "Latitude": 35.4652635,
        "Longitude": 139.6228481
    },
    {
        "Name": "yakinikuen",
        "Address": "1-32-23 Aobadai Aoba-ku Yokohama Kanagawa",
        "Url": "http://tabelog.com/en/kanagawa/A1401/A140202/14018498/",
        "Dishes": 3,
        "Service": 3,
        "Atmosphere": 3,
        "Cost": 3,
        "Drinks": 3,
        "Latitude": 35.5500849,
        "Longitude": 139.5191453
    },
    {
        "Name": "harapekoxtsu",
        "Address": "Utsukushigaoka Aoba-ku Yokohama-city Kanagawa",
        "Url": "http://tabelog.com/en/kanagawa/A1401/A140201/14055757/",
        "Dishes": 3,
        "Service": 3,
        "Atmosphere": 3,
        "Cost": 3,
        "Drinks": 3,
        "Latitude": 35.5885554,
        "Longitude": 139.5453666
    },
    {
        "Name": "An",
        "Address": "1-1-8 Kitasaiwai Nishi-ku Yokohama Kanagawa",
        "Url": "http://tabelog.com/en/kanagawa/A1401/A140101/14041964/",
        "Dishes": 3.01,
        "Service": 3.03,
        "Atmosphere": 3.32,
        "Cost": 3.34,
        "Drinks": 3.03,
        "Latitude": 35.4676549,
        "Longitude": 139.6214288
    },
    {
        "Name": "Akiyoshi",
        "Address": "3-17-15 Shinyokohama Kohoku-ku Yokohama Kanagawa",
        "Url": "http://tabelog.com/en/kanagawa/A1401/A140206/14004175/",
        "Dishes": 3.02,
        "Service": 3,
        "Atmosphere": 3,
        "Cost": 3.19,
        "Drinks": 3.18,
        "Latitude": 35.5112221,
        "Longitude": 139.6183094
    },
    {
        "Name": "Mamma Pasta",
        "Address": "3-6-14 Kyowa Chuo-ku Sagamihara Kanagawa",
        "Url": "http://tabelog.com/en/kanagawa/A1407/A140701/14008829/",
        "Dishes": 3.01,
        "Service": 3.02,
        "Atmosphere": 3.01,
        "Cost": 3.02,
        "Drinks": 3,
        "Latitude": 35.5619099,
        "Longitude": 139.3981773
    },
    {
        "Name": "Kicchinchiki",
        "Address": "1-830 Shinmarukohigashi Nakahara-ku Kawasaki Kanagawa",
        "Url": "http://tabelog.com/en/kanagawa/A1405/A140504/14011028/",
        "Dishes": 3.32,
        "Service": 3.33,
        "Atmosphere": 3.3,
        "Cost": 3.16,
        "Drinks": 3.05,
        "Latitude": 35.5800149,
        "Longitude": 139.6626609
    },
    {
        "Name": "Kaisenizakayashichifukusuisan",
        "Address": "1-8-3 Ofuna Kamakura Kanagawa",
        "Url": "http://tabelog.com/en/kanagawa/A1404/A140401/14028964/",
        "Dishes": 3.11,
        "Service": 3.15,
        "Atmosphere": 3.05,
        "Cost": 3.12,
        "Drinks": 3.1,
        "Latitude": 35.3534964,
        "Longitude": 139.5321075
    },
    {
        "Name": "Kaseiroushinkan",
        "Address": "164 Yamashitacho Naka-ku Yokohama Kanagawa",
        "Url": "http://tabelog.com/en/kanagawa/A1401/A140105/14000491/",
        "Dishes": 3.5,
        "Service": 3.38,
        "Atmosphere": 3.4,
        "Cost": 3.21,
        "Drinks": 3.09,
        "Latitude": 35.4436939,
        "Longitude": 139.6462889
    },
    {
        "Name": "Daifukusuisan",
        "Address": "2-11-10 Kamishinjo Nakahara-ku Kawasaki Kanagawa",
        "Url": "http://tabelog.com/en/kanagawa/A1405/A140504/14039663/",
        "Dishes": 3.05,
        "Service": 3.05,
        "Atmosphere": 3.05,
        "Cost": 3.06,
        "Drinks": 3.03,
        "Latitude": 35.5876222,
        "Longitude": 139.6287971
    },
    {
        "Name": "Nangokushuka",
        "Address": "4-4-3 Sagamiono Minami-ku Sagamihara Kanagawa",
        "Url": "http://tabelog.com/en/kanagawa/A1407/A140701/14001514/",
        "Dishes": 3.1,
        "Service": 3.11,
        "Atmosphere": 3.12,
        "Cost": 3,
        "Drinks": 3.06,
        "Latitude": 35.5332939,
        "Longitude": 139.434636
    },
    {
        "Name": "Kingyo",
        "Address": "1-4-25 Hiyoshihoncho Kohoku-ku Yokohama Kanagawa",
        "Url": "http://tabelog.com/en/kanagawa/A1401/A140204/14051909/",
        "Dishes": 3.17,
        "Service": 3.13,
        "Atmosphere": 3.23,
        "Cost": 3.16,
        "Drinks": 3.21,
        "Latitude": 35.5542361,
        "Longitude": 139.6452889
    },
    {
        "Name": "Uokatsu",
        "Address": "7-13-23 Zushi Zushi Kanagawa",
        "Url": "http://tabelog.com/en/kanagawa/A1406/A140602/14002852/",
        "Dishes": 3.26,
        "Service": 3.2,
        "Atmosphere": 3.13,
        "Cost": 3.26,
        "Drinks": 3.12,
        "Latitude": 35.2972085,
        "Longitude": 139.5742677
    },
    {
        "Name": "Chuukaryourisaika",
        "Address": "147 Yamashitacho Naka-ku Yokohama Kanagawa",
        "Url": "http://tabelog.com/en/kanagawa/A1401/A140105/14012680/",
        "Dishes": 3.1,
        "Service": 3.04,
        "Atmosphere": 3.05,
        "Cost": 3.1,
        "Drinks": 3.01,
        "Latitude": 35.4429773,
        "Longitude": 139.6455946
    },
    {
        "Name": "Nanashitonkotsuhen",
        "Address": "2-10-7 Isago Kawasaki-ku Kawasaki Kanagawa",
        "Url": "http://tabelog.com/en/kanagawa/A1405/A140501/14003489/",
        "Dishes": 3.41,
        "Service": 3.36,
        "Atmosphere": 3.26,
        "Cost": 3.24,
        "Drinks": 3,
        "Latitude": 35.5296726,
        "Longitude": 139.7011818
    },
    {
        "Name": "Sakura",
        "Address": "2-17-1 Tsuruyacho Kanagawa-ku Yokohama Kanagawa",
        "Url": "http://tabelog.com/en/kanagawa/A1401/A140101/14005580/",
        "Dishes": 3.43,
        "Service": 3.18,
        "Atmosphere": 3.22,
        "Cost": 3.13,
        "Drinks": 3.19,
        "Latitude": 35.4682215,
        "Longitude": 139.6222981
    },
    {
        "Name": "Daifukuya",
        "Address": "2-2-1 Shinko Naka-ku Yokohama Kanagawa",
        "Url": "http://tabelog.com/en/kanagawa/A1401/A140104/14042159/",
        "Dishes": 3.43,
        "Service": 3.18,
        "Atmosphere": 3.39,
        "Cost": 3.05,
        "Drinks": 3.02,
        "Latitude": 35.4541469,
        "Longitude": 139.6389028
    },
    {
        "Name": "Yondon",
        "Address": "23-10 Minamifujisawa Fujisawa Kanagawa",
        "Url": "http://tabelog.com/en/kanagawa/A1404/A140404/14009562/",
        "Dishes": 3.37,
        "Service": 3.39,
        "Atmosphere": 3.35,
        "Cost": 3.21,
        "Drinks": 3.22,
        "Latitude": 35.3380176,
        "Longitude": 139.4863641
    },
    {
        "Name": "Jiin",
        "Address": "3-22-21 Yokodai Isogo-ku Yokohama Kanagawa",
        "Url": "http://tabelog.com/en/kanagawa/A1401/A140309/14031415/",
        "Dishes": 3.18,
        "Service": 3.18,
        "Atmosphere": 3.19,
        "Cost": 3.04,
        "Drinks": 3.23,
        "Latitude": 35.3820487,
        "Longitude": 139.5951385
    },
    {
        "Name": "Kaikagetsu",
        "Address": "2-23-8 Tsuruyacho Kanagawa-ku Yokohama Kanagawa",
        "Url": "http://tabelog.com/en/kanagawa/A1401/A140101/14001405/",
        "Dishes": 3.02,
        "Service": 3.01,
        "Atmosphere": 3.02,
        "Cost": 3,
        "Drinks": 3.01,
        "Latitude": 35.4688492,
        "Longitude": 139.6214509
    },
    {
        "Name": "Rasshu",
        "Address": "2-38-2 Tennocho Hodogaya-ku Yokohama Kanagawa",
        "Url": "http://tabelog.com/en/kanagawa/A1401/A140301/14008005/",
        "Dishes": 3.15,
        "Service": 3.23,
        "Atmosphere": 3.26,
        "Cost": 3.05,
        "Drinks": 3.15,
        "Latitude": 35.4548565,
        "Longitude": 139.6037146
    },
    {
        "Name": "Yokohamakuruwa",
        "Address": "2-14-25 Shinyokohama Kohoku-ku Yokohama Kanagawa",
        "Url": "http://tabelog.com/en/kanagawa/A1401/A140206/14039688/",
        "Dishes": 3.56,
        "Service": 3.52,
        "Atmosphere": 3.55,
        "Cost": 3.56,
        "Drinks": 3.55,
        "Latitude": 35.5097195,
        "Longitude": 139.6148098
    },
    {
        "Name": "Pamusupuringusu",
        "Address": "5-15-33 Hiyoshi Kohoku-ku Yokohama Kanagawa",
        "Url": "http://tabelog.com/en/kanagawa/A1401/A140204/14042692/",
        "Dishes": 3.03,
        "Service": 3.01,
        "Atmosphere": 3.01,
        "Cost": 3.04,
        "Drinks": 3,
        "Latitude": 35.5462154,
        "Longitude": 139.6542661
    },